longitude,latitude,code,name,type,phone,dates_open,comments,num_sites,elevation,amenities,state,nearest_town_distance,nearest_town_bearing,city
-92.875,42.953,ACKL,Ackley Creek County Park,CP,641.756.3490,,,40,,E DP DW SH L$,IA,1,SW,Marble Rock
-93.724,41.738,ACOR,Acorn Valley - Saylorville Lake,COE,515.276.0429,early jun-late aug,,70,,E DP DW SH RS PA,IA,11.2,NW,Des Moines
-94.643,41.498,ADAI,Adair City Park,CP,641.742.3751,,,12,,E SH,IA,0.2,S,Adair
-92.21,43.12,ADOL,Adolph Munson Park,CP,,,,,,NH PT,IA,6.8,NE,New Hampton
-92.348,43.09,AIRP,Airport Lake Park,CP,,,primitive - tent,50,,E PT,IA,2.6,NW,New Hampton
-96.556,42.832,AKRO,Akron City Park,CP,,,,,,E DW SH L$,IA,0.3,NE,Akron
-94.926,41.711,ALBE,Albert the Bull CG,CP,712.563.3856,,,40,,E DP DW SH,IA,0.6,SE,Audubon
-92.313,42.88,ALCO,Alcock Park,CP,319.882.4742,early may-late oct,,40,,E DP DW SH L$,IA,0.2,W,Frederika
-96.005,42.998,ALTO,Alton Roadside Park,CP,,,,,,E DP DW SH L$,IA,0.8,N,Alton
-94.247,43.052,AMBR,Ambrose Call State Park,SP,515.295.3669,early may-late sep,,15,,NH RS,IA,1.4,SW,Algona
-93.609,42.026,AMES,Ames Bandshell City Park,CP,,,,,,NH ND NS N$,IA,0.8,E,Ames
-95.131,43.366,ARNO,Arnolds Park City Park,CP,712.332.2341,,,,,,IA,0.6,SW,Arnolds Park
-95.59,41.432,ARRO,Arrowhead Park,CP,712.485.2295,,,60,,E DP DW SH L$,IA,1.8,SE,Neola
-93.289,41.814,ASHT,Ashton Wildwood Park,CP,,,dense woods-observatory,,,NH ND,IA,7.1,W,Baxter
-91.968,40.768,AUST,Austin County Park,CP,,,primitive,,,NH NW,IA,2.6,N,Keosauqua
-91.56,42.616,BACK,Backbone State Park,SP,563.924.2527,all year,,125,,WES DP SH RS,IA,2.6,N,Dundee
-91.411,42.447,BAIL,Baileys Ford,CP,563.927.3410,,,50,,E DP DW SH L$,IA,3.6,SE,Manchester.
-90.953,42.56,BANK,Bankston Park,CP,563.556.6745,,,50,,NH ND NS,IA,3.6,SE,Holy Cross
-92.787,42.583,BEAV,Beaver Meadows Co Park,CP,319.278.4237,,,20,,E DP FT DW SH,IA,0.4,N,Parkersburg
-93.236,42.768,BEED,Beeds Lake State Park,SP,641.456.2047,all year,,144,,WES DP DW SH RS,IA,2.2,NW,Hampton
-90.423,42.247,BELV,Bellevue State Park,SP,563.872.4019,all year,,50,,E DP SH RS,IA,0.8,S,Bellevue
-93.889,42.34,BELM,Bells Mills County Park,CP,515.832.9570,,,60,,E DP DW SH L$,IA,5.1,N,Stratford
-92.151,41.386,BELD,Belva - Deer Rec Area,CP,641.622.3757,,,56,,E DP DW SH,IA,4.6,NE,Sigourney
-90.922,41.746,BENN,Bennett Park,CP,563.886.6930,,,13,,E FT DW SH,IA,2.7,E,Bennett
-91.918,42.162,BENT,Benton City  -  Fry Area,CP,319.472.3318,,,25,,E,IA,5.2,E,Vinton
-91.852,40.725,BENS,Bentonsport,CP,319.293.3589,,,,,E,IA,0.1,E,Bentonsport
-93.386,42.526,BESS,Bessman-Kemp Co Park,CP,,,,,,NH ND NS,IA,0.6,NW,Alden
-91.226,40.952,BIGH,Big Hollow Creek Park,CP,319.753.8260,,,48,,WE DP FT DW SH,IA,,,Pleasant Grove
-92.434,42.556,BIGW,Big Woods Lake,CP,319.266.6813,,,,,NH,IA,1.5,N,Cedar Falls
-96.326,42.306,BIGE,Bigelow County Park,CP,712.946.7114,,,,,E DP,IA,1.9,W,Salix
-92.478,42.563,BLAP,Black Hawk County Park,CP,319.433.7275,,,,,E 40ft,IA,2.5,NW,Cedar Falls
-95.017,42.292,BLAC,Black Hawk State Park,SP,712.657.8712,all year,,128,,E DP DW SH RS L$,IA,2.3,SE,Lake View
-91.212,43.044,BLOO,Bloody Run County Park,CP,563.245.1516,,,19,,NH,IA,1.7,W,Marquette
-93.685,41.701,BOBS,Bob Shetler - Saylorville Lake,COE,515.276.0873,early may-late sep,,70,,WES DP DW SH RS PA,IA,8,NW,Des Moines
-93.398,40.708,BOBW,Bobwhite State Park,SP,641.873.4670,,,30,,E ND NS NR,IA,1.7,W,Allerton
-95.363,41.396,BOTN,Botna Bend County Park,CP,712.741.5465,all year,,40,,WES DP DW SH L$,IA,0.4,N,Hancock
-93.04,42.236,BREK,Brekke Memorial Park,CP,,,primitive,,,NH ND FT DW NS,IA,1.4,SE,Union
-93.012,40.876,BRID,Bridgeview - Rathbun Lake,COE,641.724.3062,early may-late sep,,110,,E DP DW SH RS PA L$,IA,10.1,W,Moravia
-93.802,42.432,BRIG,Briggs Woods Park,CP,515.832.9570,,,80,,WES DP 40ft DW SH L$,IA,2.7,S,Webster City
-91.85,41.224,BRIN,Brinton Timber,CP,,,,,,NH ND NS,IA,3.7,NW,Brighton
-96.326,42.306,BROW,Browns Lake  -  Bigelow Park,CP,712.946.7114,,,40,,,IA,2,W,Salix
-96.326,42.306,BROW,Browns Lake Bigelow Park,CP,712.946.7114,,,,,E FT DW SH,IA,2,W,Salix
-93.983,42.394,BRUS,Brushy Creek  State Rec Area,SRA,515.543.8298,all year,,180,,E DP SH RS,IA,4.2,NE,Lehigh
-92.869,40.85,BUCK,Buck Creek - Rathbun Lake,COE,641.724.3206,early may-late sep,,40,,E DP SH RS PA,IA,3.8,SW,Moravia
-91.209,42.879,BUCK,Buck Creek County Park,CP,,,primitive,,,NH DW,IA,,,
-95.338,42.884,BUEN,Buena Vista Co Park,CP,712.295.7985,,,18,,E FT DW SH RS L$,IA,4.7,W,Linn Grove
-91.687,42.471,BUFA,Buffalo Creek Area,CP,,,primitive,,,NH ND VT NS,IA,2.4,E,Winthrop
-91.542,42.287,BUFC,Buffalo Creek County Park,CP,319.892.6450,,,18,,WE DP,IA,0.7,NW,Coggon
-90.745,41.454,BUFF,Buffalo Shores County Park,CP,563.328.3281,,,65,,WE DP DW SH,IA,1.2,W,Buffalo
-90.182,41.935,BULG,Bulgers Hollow - Mississippi River,COE,815.259.3628,,,25,,NH DP NS NR L$,IA,6.2,N,Clinton
-96.319,42.637,BURO,Bur Oak - Hillview County Rec Area,CP,,,,18,,NH VT DW NS,IA,,,Hinton
-94.401,43.488,BURT,Burt Lake County Park,CP,515.295.2138,early apr-late oct,noisy,,,E DP DW L$,IA,8.4,NW,Swea City
-92.761,42.844,CAMP,Camp Comfort,CP,,,,40,,E ND FT DW NS,IA,,,Greene
-95.043,42.308,CAMC,Camp Crescent Park,CP,712.657.2189,,,,,E DP DW SH L$,IA,0.6,E,Lake View
-91.014,41.162,CAPP,Cappy Russell Access,COE,,,no facilities,,,NH ND NT NW NS NR N$,IA,4.6,N,Oakville
-95.424,41.237,CARS,Carson City Park,CP,,,,15,,WE DP FT DW SH L$,IA,,,Carson
-94.517,41.509,CASE,Casey City Park - Abram Rutt,CP,641.746.3315,all year,,10,,E DP DW SH L$,IA,0.3,N,Casey
-92.494,42.76,CEDA,Cedar Bend Park,CP,,,,40,,E DP DW SH N$,IA,2.6,NW,Waverly
-92.855,43.283,CEDA,Cedar Bridge County Park,CP,,,,18,,WE DP FT DW SH,IA,1.8,W,Osage
-92.859,41.258,CEDA,Cedar Creek Access,CP,,,primitive,,,NH ND NS,IA,11.1,W,Oskaloosa
-91.235,41.721,CEDA,Cedar Valley Co Park,CP,,,,30,,E ND l$,IA,26.2,N,Cedar Bluffs
-92.548,42.959,CEDV,Cedar View Park,CP,641.435.4156,,,,,E DW SH,IA,0.7,NW,Nashua
-91.138,42.11,CENT,Central Park,CP,563.487.3541,mid apr-mid oct,,100,,WES DP FT DW,IA,2.6,W,Center Junctio
-92.206,41.303,CHAC,Chacauqua River Access,CP,,,river ramp - primitive - unknown facilities,,,NH ND NS,IA,,,Sigourney
-95.557,42.738,CHEK,Cherokee City Park,CP,712.225.5749,,,,,E DP,IA,0.8,S,Cherokee
-93.68,41.732,CHER,Cherry Glen - Saylorville Lake,COE,515.964.8792,mid apr-mid oct,,125,,WES DP 60ft DW SH RS PA,IA,9.8,N,Des Moines
-93.429,41.791,CHIC,Chichaqua Bottoms Greenbelt,CP,515.967.2596,,,36,,E DW SH,IA,7.1,S,Maxwell
-92.503,43.033,CHIS,Chickasaw Park,CP,,,,,,NH ND PT NS,IA,2.4,W,Ionia
-96.17,43.07,CHIL,Childrens Park,CP,712.722.0761,,,,,E ND NS NR L$,IA,0.8,SE,Sioux Center
-91.939,43.423,CHIM,Chimney Rock County Park,CP,,,primitive,,,NH ND VT NS NR,IA,9.2,E,Cresco
-93.499,40.863,CIND,Cinder Path RV Park,CP,641.877.6841,,,14,,E DP DW NS,IA,0.3,N,Humeston
-90.809,41.458,CLAR,Clarks Ferry - Mississippi River,COE,563.381.4043,early apr-late sep,,45,,E DP SH RS PA,IA,12.3,E,Muscatine
-93.389,43.111,CLEA,Clear Lake State Park,SP,641.357.4212,all year,,215,,WES DP 60ft DW SH RS L$,IA,2.3,S,Clear Lake
-95.476,42.351,COBB,Cobb City Park,CP,712.364.2958,,,45,,WE DP DW SH L$,IA,0.4,NW,Ida Grove
-95.136,41.255,COCK,Cocklin Fish Farm,CP,712.769.2372,,,56,,E FT NS,IA,1.4,N,Griswold
-91.534,42.494,COFF,Coffins Grove,CP,563.927.3410,,,25,,E DP,IA,3.9,W,Manchester.
-95.084,41.291,COLS,Cold Spring Park,CP,712.769.2372,,,80,,E DP DW SH,IA,1,S,Lewis
-92.642,43.156,COLW,Colwell County Park,CP,641.756.3490,,,,,NH ND NS N$,IA,2.4,W,Colwell
-94.465,42.624,COOP,Coopers Cove Co Park,CP,,mid apr-mid oct,,12,,E DP FT DW SH,IA,6.5,W,Clare
-93.335,40.751,CORY,Corydon Lake Co Park,CP,,,,20,,WE ND FT DW SH,IA,1,SW,Corydon
-91.53,41.723,COTT,Cottonwood - Coralville Lake,COE,515.276.4656,mid apr-mid oct,,,,NH DP SH RS PA,IA,4.3,N,Iowa City
-95.601,42.275,CRAW,Crawford Creek County Rec Area,CP,,,3 campgrounds,24,,E DP DW SH,IA,2.8,S,Battle Creek
-94.044,41.213,CRIS,Criss Cove County Park,CP,,,,16,,WE ND VT NS L$,IA,8.3,S,Winterset.
-93.19,42.478,CROS,Cross Ford River Access,CP,,,primitive,,,NH ND NS,IA,4.8,SE,Iowa Falls
-93.783,43.23,CRYS,Crystal Lake Park,CP,,,,95,,E DP FT DW SH NR L$,IA,0.7,NE,Crystal Lake
-92.063,42.544,CUTS,Cutshall Area,CP,,,primitive,,,NH VT,IA,4.7,N,Jesup
-93.573,43.465,DAHL,Dahle Park,CP,641.565.3390,,,,,E PT DW L$,IA,3.7,NW,Lake Mills
-93.043,42.249,DAIS,Daisy Long County Park,CP,641.648.4361,,,45,,E DP DW SH,IA,1.1,E,Union
-93.292,42.171,DAKI,Dakins Lake County Park,CP,641.487.7477,,,10,,E,IA,0.8,N,Zearing
-94.019,41.629,DALL,Dallas County Fairgrounds,CP,515.993.4984,,,,,WE DP DW SH L$,IA,1,N,Adel
-93.068,42.28,DAVI,David Bates Memorial Park,CP,,,,,,NH ND VT DW NS L$,IA,2.4,N,Union
-96.189,42.009,DECA,Decatur Bend Access,CP,,all year,primitive,6,,E PT L$,IA,4.9,W,Onawa
-90.47,41.96,DEEP,Deep Creek,CP,563.677.2710,,,11,,E DP FT NS,IA,0.2,W,Charlotte
-96.325,42.643,DEER,Deer Ridge - Hillview County Rec Area,CP,,,,27,,WE FT DW SH,IA,,,Hinton
-92.303,42.462,DEER,Deerwood City Park,CP,319.493.0655,,,,,WES DP DW SH L$,IA,2.9,SE,Waterloo
-95.338,41.826,DEFI,Defiance RV Park,CP,712 748.3431,,,,,WE DP DW SH RS L$,IA,0.1,N,Defiance
-94.233,42.95,DEVI,Devine Wildlife Area,CP,515.295.2138,,,,,NH ND NS,IA,8.3,S,Algona
-92.542,41.593,DIAM,Diamond Lake County Park,CP,641.623.3630,,,100,,E DP DW SH L$,IA,0.9,NW,Montezuma
-94.687,42.118,DICK,Dickson Timber County Park,CP,,,,,,E,IA,4.8,NE,Glidden
-95.474,42.935,DOG,Dog Creek Co Park,CP,712.295.7200,,,,,NH FT L$,IA,2.9,SE,Sutherland
-94.083,42.387,DOLL,Dolliver Memorial State Park,SP,515.359.2539,all year,,30,,E DP DW SH RS L$,IA,4.3,SE,Otho
-94.027,42.12,DONW,Don Williams Park,CP,515.275.9906,,,,,E DP DW SH L$,IA,5.6,N,Ogden
-95.705,43.163,DOUM,Douma Co Park,CP,712.295.7200,,,,,NH FT L$,IA,2.8,SW,Sanborn
-92.046,42.741,DOWN,Downing County Park,CP,563.425.3613,,,,,E FT NS,IA,3.2,SW,Westgate
-93.508,42.654,DOWS,Dows Pool Park,CP,,,,,,E DW SH,IA,0.4,SW,Dows
-92.479,40.802,DRAK,Drakesville City Park,CP,641.722.3859,,,6,,E ND NS,IA,4.8,NW,Bloomfield
-90.641,42.523,DUBU,Dubuque Yacht Basin and RV Park,CP,563.556.7708,,walk to sites only,56,,WE,IA,1.9,NE,Dubuque
-91.771,42.996,DUTT,Duttons Cave Co Park,CP,,,,5,,E PT DW,IA,3,NE,West Union
-93.146,42.472,EAGL,Eagle City County Park,CP,,,,,,NH ND NS,IA,6.9,SE,Iowa Falls
-93.744,41.033,EASL,East Lake Co Park,CP,641.342.3960,,,,,ND NS,IA,1.2,E,Osceola
-95.138,43.134,EAST,East Leach City Park,CP,712.264.7265,,,200,,E DP DW SH L$,IA,0.9,S,Spencer
-90.855,42.047,EDEN,Eden Valley Park,CP,563.847.7202,,,,,E DP DW SH,IA,2,S,Baldwin
-91.551,41.68,EDGE,Edgewater City Park,CP,319.466.7605,,,,,,IA,1.7,NW,Iowa City
-91.399,42.645,EDGW,Edgewood Campground,CP,563.928.6613,,,,,E NS,IA,0.1,E,Edgewood
-94.669,42.739,ELBE,Elbert Park,CP,712.335.4841,,,,,WES DP NS,IA,0.2,N,Pocahontas
-93.56,42.941,ELDR,Eldred Sherwood Park,CP,641.923.2720,,,,,E DP DW SH,IA,3.1,NE,Goodell
-93.086,41.399,ELKR,Elk Rock State Park,SP,641.842.6008,all year,,75,,E DP DW SH RS L$,IA,26.2,E,Sweetwater
-91.398,42.852,ELKA,Elkader City Park,CP,563.245.2098,,,125,,WE DP DW SH,IA,0.4,E,Elkader
-95.09,41.57,ELKH,Elkhorn Creek Rec Area,CP,,,,7,,E ND NS L$,IA,2.2,SW,Elk Horn
-95.175,43.355,EMER,Emerson Bay State Rec Area,SRA,712.337.3211,all year,,115,,E DP DW SH RS L$,IA,2.4,NW,Milford
-92.734,41.235,EVEL,Eveland Access,CP,641.673.9327,,,26,,E DW,IA,4,SW,Beacon
-91.725,41.733,FWKE,F. W. Kent County Park,CP,319.645.2315,,,85,,WE DP DW SH,IA,3.6,NW,Tiffin
-90.924,41.433,FAIR,Fairport State Rec Area,SRA,563.263.4337,all year,,40,,E DP DW SH RS L$,IA,6.2,E,Muscatine
-94.628,42.495,FEAT,Featherstone County Park,CP,712.297.7131,,,61,,WE DP DW SH,IA,6.9,N,Rockwell City
-91.008,41.162,FERR,Ferry Landing,COE,563.263.7913,,,50,,NH DP NS NR,IA,18.3,S,Muscatine
-94.24,40.737,FIFE,Fifes Grove Co Park,CP,641.464.2787,,,10,,E ND FT NS,IA,1.6,N,Mount Ayr
-90.908,42.324,FILL,Fillmore County Rec Area,CP,563.556.6745,,,,,E L$,IA,0.6,NE,Fillmore
-90.806,42.654,FINL,Finleys Landing City Park,CP,563.552.1571,,,30,,E DW SH,IA,12.8,NW,Dubuque
-91.118,41.27,FLAM,Flaming Prairie Park,CP,319.523.8381,,,24,,E,IA,3.7,E,Grandview
-91.908,42.604,FONT,Fontana County Park,CP,319.636.2617,,,55,,E DP DW SH L$,IA,9.4,N,Independence
-93.046,42.158,FORE,Forest Reserve - Marshalltown,CP,641.752.5490,,,,,NH ND NS,IA,,,Liscomb
-91.311,42.614,FOUN,Fountain Springs County Park,CP,563.927.3410,,,,,,IA,2.5,NE,Greeley
-90.968,41.063,FOUR,Fourth Pumping Plant Rec Area,CP,319.753.8260,,primitive,22,,E DP,IA,7,NE,Kingston
-94.207,42.677,FRAN,Frank A Gotch Park,CP,515.332.4087,,,,,E DP SH L$,IA,3.1,S,Humboldt
-91.106,42.852,FREN,Frenchtown County Park,CP,563.245.1516,,,,,NH,IA,4.3,N,Guttenberg
-91.471,42.908,FRIE,Friedens County Park,CP,563.245.1516,,,,,NH,IA,5,NW,Elkader
-95.917,41.268,FRND,Friendship City Park,CP,,,,,,E DP,IA,2.9,W,Council Bluffs
-94.865,43.393,FTDE,Ft. Defiance State Park,SP,712.337.3211,all year,,15,,E RS,IA,1.5,SW,Estherville
-95.414,42.506,GALV,Galva City Park,CP,712.371.9438,,,6,,E ND FT NS,IA,0.2,SE,Galva
-93.222,42.886,GALV,Galvin Memorial Park,CP,641.892.4718,,,,,E DP DW SH,IA,0.8,SW,Sheffield
-92.85,42.938,GATE,Gates Bridge County Park,CP,641.756.3490,,,,,NH ND NS N$,IA,2,S,Marble Rock
-91.383,40.824,GEOD,Geode State Park,SP,319.392.4601,all year,,170,,E DP DW SH RS L$,IA,4.5,SW,Danville
-92.946,43.054,GEOW,George Wyatt City Park,CP,641.756.3718,,,36,,E DW SH,IA,0.2,NE,Rockford
-92.396,42.536,GEOR,George Wyth State Park,SP,319.232.5505,all year,,70,,E DP DW SH RS L$,IA,2.5,E,Cedar Falls
-91.632,42.959,GILB,Gilbertson Conservation Education Area,CP,563.426.5740,,,28,,E DP DW SH,IA,0.1,NW,Elgin
-92.592,41.343,GLEN,Glendale Access,CP,,,unknown facilities,,,NH,IA,,,Oskaloosa
-95.734,41.048,GLEN,Glenwood Lake Park,CP,712.527.3509,,,,,E,IA,0.5,E,Glenwood
-91.837,43.041,GOEK,Goeken Co Park,CP,,,only 1 electric site,,,E VT,IA,5.6,N,West Union
-94.689,42.551,GORD,Gordon Prange City Park,CP,712.468.2411,,,,,WES L$,IA,0.3,W,Pomeroy
-91.957,43.009,GOUL,Gouldsburg County Park,CP,563.425.3613,,,26,,E DP DW SH,IA,4.9,N,Hawkeye
-93.033,42.168,GRAM,Grammer Grove Wildlife Area,CP,,,tent only,,,NH ND FT DW NS,IA,1.9,SW,Liscomb
-94.893,42.264,GRAN,Grant County Park,CP,712.662.4530,,primitive,,,WES DP,IA,1.2,NW,Auburn
-91.362,40.79,GRAY,Grays Landing,CP,319.376.2341,,,,,NH L$,IA,3.6,N,Denmark
-95.081,41.9,GREA,Great Western Co Park,CP,712.792.4614,,,8,,WE DP L$,IA,1,SW,Manning
-94.383,41.115,GREE,Green Valley State Park,SP,641.782.5131,all year,,145,,E DP DW SH RS L$,IA,4,N,Creston
-92.802,42.893,GREE,Greene Rec Area - Camp Comfort,CP,319.278.4237,,,30,,E DP NS,IA,0.2,S,Greene
-95.165,43.371,GULL,Gull Point State Park,SP,712.337.3211,all year,,110,,E DP DW SH RS L$,IA,3.3,N,Milford
-94.967,40.984,HACK,Hacklebarney Woods County Park,CP,,,,14,,E VT NS NR,IA,3.8,N,Villisca
-94.998,42.385,HAGG,Hagge County Park,CP,712.662.4530,,,15,,WES DP DW SH L$,IA,2.6,S,Sac City
-92.923,43.354,HALV,Halvorson Park,CP,641.736.2221,,,,,E DP DW SH,IA,1.7,S,St. Ansgar
-92.112,41.863,HANN,Hannen County Park,CP,319.454.6382,,,90,,E DW SH,IA,3.5,SW,Blairstown
-92.411,43.119,HAUS,Haus Park,CP,,,tents only,,,NH ND NS,IA,0.3,E,North Washingt
-96.488,43.003,HAWA,Hawarden City Park,CP,,,,15,,WES DP L$,IA,0.4,N,Hawarden
-94.37,41.988,HEND,Henderson Co Park,CP,,all year,,4,,E,IA,2.1,S,Jefferson
-93.353,41.99,HICK,Hickory Grove County Park,CP,515.232.2516,,,54,,E SH,IA,5.6,SE,Nevada
-92.311,42.27,HICL,Hickory Hills Park -  La Porte City,CP,319.342.3350,,,80,,WES DP DW SH L$,IA,6.9,SW,La Porte City
-93.609,41.18,HICN,Hickory Hills Park - New Virginia,CP,515.961.6169,,,,,NH ND NS,IA,6.2,E,New Virgiinia
-91.521,41.555,HILL,Hills Access,CP,319.645.2315,,,13,,E,IA,0.7,E,Hills
-95.853,43.191,HILP,Hills Park - Sheldon,CP,712.324.2769,,,23,,WE DP L$,IA,0.7,N,Sheldon
-96.319,42.637,HILV,Hillview County Rec Area,CP,,,2 campgrounds,,,,IA,1.5,NW,Hinton
-95.857,41.413,HITC,Hitchcock County Nature Center,CP,712.328.5833,,,19,,E DP DW SH L$,IA,1.3,S,Honey Creek
-91.976,42.164,HOEF,Hoefle - Dulin Area County Park,CP,,,,16,,E PT,IA,2.2,E,Vinton
-91.311,42.614,HOLB,Holbert Park,CP,,,,,,,IA,2.5,NE,Greeley
-92.928,40.861,HONE,Honey Creek State Park,SP,641.724.3739,all year,,150,,RS,IA,6.1,W,Moravia
-93.997,40.943,HOPE,Hopeville Square Co Park,CP,641.342.3960,,,4,,E FT NS,IA,0,N,Hopeville
-90.664,42.055,HORS,Horseshoe Pond,CP,563.652.2484,,,20,,E DP FT DW SH,IA,1,S,Maquoketa
-92.559,42.985,HOWA,Howards Woods,CP,,,,,,NH,IA,2.5,NW,Nashua
-92.973,41.365,HOWE,Howell Station - Red Rock Lake,COE,641.828.7522,mid apr-late oct,,140,,E DP DW SH RS,IA,4.2,SW,Pella
-91.38,40.391,HUBI,Hubinger Landing Park,CP,319.524.7122,,,18,,WE DP NS,IA,1.3,SE,Keokuk
-96.134,41.925,HUFF,Huff - Warner Access Area,CP,,,,25,,E DP VT DW L$,IA,2.7,W,Blencoe
-94.575,42.113,HYDE,Hyde Park,CP,,,,28,,E FT DW,IA,6.4,N,Scranton
-95.467,42.348,IDA,Ida Grove City Park,CP,712.364.2428,,,,,E DP FT DW NS RS L$,IA,0.3,NE,Ida Grove
-91.891,42.461,INDE,Independence City RV Park,CP,319.334.6711,,,,,E DP DW SH,IA,0.5,S,Independence
-91.752,40.633,INDI,Indian Lake Park,CP,319.878.3706,,,,,E DP DW SH,IA,0.7,SW,Farmington
-91.236,40.724,INDP,Indian Path Park,CP,319.463.7673,,,12,,E,IA,0.9,N,Wever
-93.377,42.943,INGE,Ingebretson County Park,CP,641.423.5309,,,23,,E DW SH L$,IA,0.4,E,Thornton
-92.881,43.319,INTE,Interstate Co Park,CP,641.732.5204,,,,,WE DP FT DW SH L$,IA,0.8,W,Mitchell
-94.459,43.491,IOWA,Iowa Lake Co Campground,CP,712.867.4422,,,,,NH ND VT DW NS,IA,6.6,N,Armstrong
-95.455,43.5,IOWA,Iowa Lake Co Park,CP,319.655.8466,,,120,1505,E DP SH NR,IA,4,N,Harris
-93.617,42.846,IOWA,Iowa River RV Park,CP,641.444.3386,,,16,,WES DP DW SH,IA,0.1,W,Belmond
-93.551,41.599,IOWS,Iowa State Fairgrounds,CP,515.262.3111,,,,,WES DP,IA,3,E,Des Moines
-96.171,43.436,ISLP,Island Park - Rock Rapids,CP,,,,22,,E DP,IA,,,Rock Rapids
-94.014,41.621,ISLA,Island Park Co Park,CP,515.993.4525,,,,,NH FT DW SH,IA,0.5,NE,Adel
-92.906,40.827,ISLA,Island View - Rathbun Lake,COE,641.647.2079,early may-late sep,,200,,E DP DW SH RS PA,IA,7,N,Centerville
-92.981,41.368,IVAN,Ivans - Red Rock Lake,COE,,,,,,E DW SH NR,IA,4.3,SW,Pella
-91.741,42.599,JACK,Jakway County Park,CP,,,,,,E DW SH,IA,1.5,SW,Aurora
-91.988,40.993,JEFF,Jefferson County Park,CP,641.472.4421,,,,,E FT DW SH,IA,1.5,SW,Fairfield
-93.775,41.78,JEST,Jester County Park,CP,515.323.5366,,,252,,E DP DW SH,IA,2.8,NE,Granger
-94.261,42.731,JOES,Joe Sheldon County Park,CP,515.332.4087,,,,,E DW SH,IA,2.4,W,Humboldt
-90.751,42.079,JOIN,Joinerville County Park,CP,563.652.3783.,,,,,NH NS N$,IA,4.5,W,Maquoketa
-91.597,42.677,JOYS,Joy Springs County Park,CP,,,,,,NH,IA,3.2,W,Strawberry Poi
-94.68,43.122,KEAR,Kearny Park,CP,712.852.4030,,,,,E DW SH NR,IA,0.6,N,Emmetsburg
-94.192,42.583,KENN,Kennedy County Park,CP,515.576.4258,,,100,,E DP DW SH L$,IA,6.1,N,Fort Dodge
-91.816,42.844,KLOC,Klocks Island Park,CP,563.425.4316,,,25,,E DP FT DW SH,IA,0.7,W,Fayette
-94.339,40.792,KOKE,Kokesh Co Park,CP,,,,,,NH ND NS,IA,1.2,S,Diagonal
-95.554,42.704,KOSE,Koser Spring Lake Park,CP,712.225.2715,,,40,,WES DP DW SH L$,IA,3.1,S,Cherokee
-91.981,40.709,LACE,Lacey - Keosauqua State Park,SP,319.293.3502,all year,,113,,E DP DW SH RS L$,IA,1.8,SW,Keosauqua
-93.583,41.296,LAKE,Lake Ahquabi State Park,SP,515.961.7101,all year,,141,,E DP 60ft DW SH RS L$,IA,4.5,S,Indianola
-94.762,41.433,LAKA,Lake Anita State Park,SP,712.762.3564,all year,,162,,WES DP 60ft DW SH RS L$,IA,0.8,S,Anita
-94.711,41.003,LAKE,Lake Binder Co Park,CP,641.322.4230,,primitive,75,,NH,IA,1.6,NE,Corning
-92.917,42.716,LAKE,Lake Considine,CP,,,primitive,,,NH ND NS,IA,4,S,Bristow
-93.692,42.793,LAKC,Lake Cornelia Park,CP,515.532.3185,,,70,,E DW SH,IA,4.7,NE,Clarion
-91.896,41.192,LAKD,Lake Darling State Park,SP,319.694.2323,all year,,118,,NH DP DW SH RS L$,IA,4.1,W,Brighton
-92.446,40.759,LAKE,Lake Fisher,CP,641.664.2260,,call before camping,6,,WE,IA,1.7,W,Bloomfield
-92.55,43.373,LAKE,Lake Hendricks Co Park,CP,641.985.2127,,,80,,E DP FT DW SH,IA,0.6,N,Riceville
-94.735,41.056,LAKE,Lake Icaria Co Park,CP,641.322.4793,,2 campgrounds,100,,WES DP FT DW SH,IA,4.8,N,Corning
-92.182,41.636,LAKI,Lake Iowa County Park,CP,319.655.8465,,,122,,E DP DW SH,IA,8.2,S,Ladora
-92.541,41.29,LAKK,Lake Keomah State Park,SP,641.673.6975,all year,,65,,E DP DW SH RS L$,IA,5.6,E,Oskaloosa
-91.577,41.798,LAKM,Lake Macbride State Park,SP,319.624.2200,all year,,60,,WES DP VT DW SH RS L$,IA,4.3,W,Solon
-95.854,41.197,LAKN,Lake Manawa State Park,SP,712.366.0220,all year,,72,,E DP DW SH RS L$,IA,4.5,S,Council Bluffs
-91.911,43.173,LAME,Lake Meyer County Park,CP,563.534.7145,,,,,E DP DW SH,IA,2.5,W,Calmar
-94.684,40.713,LAKT,Lake of Three Fires State Park,SP,712.523.2700,all year,,140,,E DP DW SH RS L$,IA,3.7,NE,Bedford
-94.437,41.2,LAKE,Lake Orient Rec Area,CP,,,,22,,E,IA,1.2,W,Orient
-96.465,43.386,LAKE,Lake Pahoja Rec Area,CP,,,,,,E DP FT DW SH NR,IA,5.7,N,Inwood
-91.994,40.683,LASU,Lake Sugema County Park,CP,319.293.3532,,,,,E DP DW SH,IA,,,
-92.589,40.816,LAKW,Lake Wapello State Park,SP,641.722.3371,all year,,80,,E DP DW SH RS L$,IA,5.7,W,Drakesville
-93.504,40.877,LAKE,Lakeside Co Park,CP,,,,29,,E DW SH,IA,1.3,N,Humeston
-95.388,42.73,LARS,Larson Lake Co Park,CP,,,,5,,NH ND VT NS L$,IA,2.7,NE,Aurelia
-93.887,41.983,LEDG,Ledges State Park,SP,515.432.1852,all year,,95,,E DP DW SH RS L$,IA,5.3,S,Boone
-95.23,41.023,LEGI,Legion City Park,CP,,,,10,,E,IA,0.8,N,Red Oak
-92.886,40.715,LELA,Lelah Bradley Park,CP,641.856.8528,early may-late oct,,15,,E NS,IA,1.2,SW,Centerville
-94.57,41.687,LENO,Lenon Mill Co Park,CP,,,,,,E FT DW NS,IA,10.7,W,Panora
-96.162,42.027,LEWI,Lewis and Clark State Park,SP,712.423.2829,all year,,112,,WES DP 60ft DW SH RS L$,IA,3.3,W,Onawa
-92.279,43.466,LIDT,Lidtke Park,CP,,,,30,,E DW SH NR L$,IA,1.2,N,Lime Springs
-93.194,43.184,LIMC,Lime Creek Conservation Area - Mason City,CP,641.423.5309,,,,,E,IA,2.1,N,Mason City
-91.981,42.327,LIMP,Lime Creek Park - Brandon,CP,319.636.2617,,,,,E,IA,1.4,NE,Brandon
-91.543,41.725,LIND,Linder Point - Coralville Lake,COE,319.338.3543,,,30,,WE DP DW SH RS PA L$,IA,4.4,N,Iowa City
-93.196,42.979,LINN,Linn Grove County Park,CP,641.423.5309,,,66,,E DP DW SH L$,IA,0.5,SW,Rockwell
-95.246,42.895,LINN,Linn Grove Dam Co Park,CP,712.295.7985,,,,,NH ND NS,IA,0.2,N,Linn Grove
-93.778,40.768,LITT,Little River Rec Area,CP,641.446.7307,,,30,,E FT DW SH RS,IA,2.5,NW,Leon
-95.801,42.45,LITS,Little Sioux Park,CP,712.372.4984,,,95,,E DP DW SH,IA,1.9,SW,Correctionvill
-93.639,42.277,LITW,Little Wall Lake County Park,CP,515.832.9570,,,104,,E DP DW SH L$,IA,2.1,S,Jewell
-94.785,41.556,LITT,Littlefield Rec Area,CP,,,,100,,WES DP FTVT DW SH NR,IA,5.3,SE,Exira
-94.891,43.176,LOST,Lost Island Huston Park,CP,712.837.4866,,,,,E DP DW SH L$,IA,3.3,N,Ruthven
-94.202,42.867,LOTT,Lotts Creek Co Park,CP,515.332.4087,,,,,E ND NS,IA,10,N,Dakota City
-91.356,41.278,LOUI,Louisa County Fairgrounds,CP,,,,10,,E DW SH,IA,0.2,E,Columbus Junct
-91.258,40.755,LOWA,Lower Augusta Skunk River Access,CP,,,,,,E DP,IA,1,E,Augusta
-95.386,41.318,LYON,Lyons Park,CP,,,,,,DW,IA,0.8,NE,Oakland
-91.736,41.051,MACC,Mac Coon Access,CP,641.472.4421,,,,,E DP VT DW,IA,3.9,N,Lockridge
-93.232,42.663,MALL,Mallory Co Park,CP,641.456.4375,,,25,,E NS,IA,5.6,S,Hampton
-92.108,41.239,MANH,Manhattan Bridge Access,CP,,,primitive,,,NH ND VT NS,IA,2.9,N,Ollie
-95.462,41.855,MANT,Manteno Co Park,CP,,,,,,E DP FT DW SH L$,IA,6.7,W,Defiance
-95.787,42.168,MAPL,Mapleton City,CP,712.881.1351,,,4,,E ND NS L$,IA,0.3,NE,Mapleton
-90.775,42.119,MAQU,Maquoketa Caves State Park,SP,563.652.5833,all year,,,,E DP DW SH RS L$,IA,6.6,NW,Maquoketa
-95.125,43.469,MARB,Marble Beach State Rec Area,SRA,712.337.3211,all year,,110,,E DP DW SH RS L$,IA,3.4,N,Spirit Lake
-93.183,43.158,MARG,Margaret Macnider City Park,CP,641.421.3673,,,95,,WES DP DW SH,IA,0.9,E,Mason City
-93.119,41.316,MARI,Marion County Park,CP,641.828.2213,,,,,E DP DW SH,IA,1.1,W,Knoxville
-92.963,41.782,MARI,Mariposa Co Park,CP,641.792.9780,,,15,,NH ND NS,IA,7.3,NE,Newton
-94.349,40.818,MARL,Marlin Fogle Rec Area,CP,641.734.5491,,,42,,E DP FT DW SH,IA,0.7,NW,Diagonal
-91.579,41.287,MARR,Marr Park,CP,,,,26,,WES DP FT DW SH,IA,1.4,W,Ainsworth
-95.472,42.851,MART,Martin Area County Park,CP,,,,40,,NH ND VT DW NS,IA,3.8,E,Larrabee
-90.587,42.43,MASS,Massey Marina,CP,563.556.6745,,,40,,E DP DW SH,IA,6.3,SE,Dubuque
-91.382,42.132,MATS,Matsell Bridge Natural Area,CP,319.892.6450,,,70,,NH,IA,8.8,SE,Central City
-91.878,42.778,MAYN,Maynard City Park,CP,563.637.2269,,,,,E DP NS L$,IA,0.4,NE,Maynard
-92.142,42.318,MCFA,McFarlane Park,CP,319.342.3844,,,,,E DP DW SH,IA,2.6,E,La Porte City
-92.393,40.75,MCGO,McGowen Rec Area,CP,641.664.2527,,,12,,WE DP DW SH RS L$,IA,1.2,E,Bloomfield
-93.452,43.127,MCIN,McIntosh Woods State Park,SP,641.829.3847,all year,,50,,E DP DW SH RS L$,IA,1.3,E,Ventura
-94.382,41.052,MCKI,McKinley Park,CP,641.782.2000,,,,,E DP,IA,1.2,SW,Creston
-94.414,41.525,MENL,Menlo City Park,CP,641.524.2411,,,7,,E,IA,0.6,NW,Menlo
-94.621,42.907,MERE,Meredith Co Park,CP,,,,17,,E DP FT DW SH,IA,2,N,Plover
-92.837,41.12,MIAM,Miami Lake Park,CP,641.946.8112,,,,,E DW SH L$,IA,3.7,E,Lovilia
-91.9,41.798,MIDD,Middle Amana Park,CP,,,grassy but can get muddy,24,,E ND DW,IA,,,Middle Amana
-94.281,41.352,MIDD,Middle River Forest Area,CP,,,tent only - primitive - canoeing,,,NH ND NS,IA,11.8,S,Dexter
-91.547,40.952,MIDW,Midwest Old Threshers,CP,319.385.8937,,RV parking,,,E DP DW SH,IA,,,Mount Pleasant
-94.762,42.272,MIKE,Mike Macke Memorial Park,CP,,,on stream - nice place - fish - ask directions in town,6,,WE L$,IA,1.5,W,Lake City
-95.668,42.984,MILL,Mill Creek Co Park,CP,,early may-late sep,swim,48,,WE DP FT DW SH,IA,1.1,E,Paulina
-90.642,42.516,MILL,Miller Riverview City Park,CP,563.589.4238,,,,,E DP,IA,1.5,NE,Dubuque
-92.018,42.195,MILR,Milroy Access,CP,,,,95,,E,IA,2.1,N,Vinton
-92.019,42.259,MINN,Minne Estema Park,CP,563.472.3318,,,30,,E,IA,6.5,N,Vinton
-95.129,43.365,MINN,Minnewashta Lake,CP,712.332.2341,,,,,E DP DW SH,IA,,,
-95.906,41.557,MISS,Missouri Valley City Park,CP,712.642.3502,,,110,,E DP NS,IA,0.9,W,Missouri Valle
-93.513,40.602,MOOR,Moore - Gosch Memorial Park,CP,,early apr-late oct,,22,,WE NS,IA,1.4,NE,Lineville
-95.479,42.357,MOOR,Moorehead Pioneer County Park,CP,712.364.3300,,,,,NH ND NS,IA,0.8,NW,Ida Grove
-91.76,41.989,MORG,Morgan Creek County Park,CP,319.396.2363,,,36,,WE DP SH,IA,5.6,S,Palo
-94.637,41.24,MORM,Mormon Trail County Park,CP,641.743.6450,,swim,20,,E PT NS,IA,1.7,E,Bridgewater
-91.8,40.888,MORR,Morris County Park,CP,319.796.2148,,,15,,WE,IA,2.8,NE,Stockport
-91.351,42.807,MOTO,Motor Mill Historic Site,CP,563.245.1516,,,8,,NH ND NS L$,IA,0,SE,Motor
-90.706,42.616,MUDL,Mud Lake County Park,CP,563.552.2746,,,75,,E DW SH,IA,8.3,N,Dubuque
-94.331,41.577,NATI,Nations Bridge Co Park,CP,515.523.1789,,swimming hole,,,E DP FT DW SH,IA,5.1,N,Stuart
-95.587,41.936,NELS,Nelson Park,CP,712.263.2748,,,,,E DP DW SH,IA,4.8,W,Dow City
-92.303,43.058,NEWH,New Hampton City,CP,641.394.2758,,,25,,WES DP FT DW SH NR L$,IA,0.8,E,New Hampton
-91.124,42.536,NEWW,New Wine County Park,CP,563.921.3475,,,55,,E DP DW SH,IA,3.6,N,Dyersville
-93.754,40.588,NINE,Nine Eagles State Park,SP,641.442.2855,all year,,70,,E DP 60ft DW SH RS L$,IA,4.6,SE,Davis City
-95.323,41.568,NISH,Nishna Bend Rec Area,CP,,,,14,,E FT DW SH L$,IA,5.9,S,Harlan
-94.985,40.761,NODA,Nodaway Valley County Park,CP,712.542.3864,,,,,E DP,IA,3.1,NE,Clarinda
-92.524,42.848,NORC,North Cedar Park,CP,319.882.4742,,,40,,E DP DW SH L$,IA,0.7,NE,Plainfield
-92.971,41.378,NORT,North Overlook - Red Rock Lake,COE,641.828.7522,mid apr-mid sep,,55,,E DP DW SH RS L$,IA,3.5,SW,Pella
-92.088,42.866,NORW,North Woods Park,CP,319.882.4742,,,,,E PT L$,IA,1.3,N,Sumner
-96.472,43.059,OAKG,Oak Grove Co Park,CP,712.552.1047,,2 campgrounds,100,,E DP FT DW SH NR,IA,4.4,N,Hawarden
-96.459,43.062,OAKG,Oak Grove County Park,CP,712.552.1047,,,55,,E DP SH,IA,4.8,N,Hawarden
-94.069,42.256,OAKP,Oak Park - Dayton,CP,515.547.2711,,,44,,E DP DW SH,IA,0.4,S,Dayton
-91.619,40.935,OAKL,Oakland Mills Park,CP,319.986.5067,,2 campgrounds,50,,E DP DW SH,IA,0.1,SW,Oakland Mills
-93.264,43.481,OCHE,Ochee Yahola,CP,641.324.1524,,,4,,E NW L$,IA,3.3,NW,Northwood
-95.535,43.386,OCHE,Ocheyedan Pits Rec Area,CP,,,,,,E FT DW,IA,2.2,S,Ocheyedan
-95.249,42.308,ODEB,Odebolt Memorial Walk RV Park,CP,712.668.2231,,,,,E L$,IA,0.3,SE,Odebolt
-91.92,42.648,OELW,Oelwein City Park,CP,319.283.5440,,,30,,WE DP DW SH L$,IA,2.1,S,Oelwein
-95.448,41.197,OLDE,Olde Towne Co Park,CP,712.741.5465,,primitive - inner tubing on river,,,NH ND NS L$,IA,1.2,W,Macedonia
-95.789,42.008,OLDH,Oldham Rec Area,CP,,,swim,,,E L$,IA,1.6,N,Soldier
-95.122,43.125,ONEO,Oneota Little Sioux Access,CP,,,,,,VT,IA,1.8,SE,Spencer
-92.854,43.276,OSAG,Osage Spring City Park,CP,319.283.5440,,,,,NH,IA,1.8,W,Osage
-91.444,42.793,OSBO,Osborne Conservation Center,CP,563.245.1516,,,,,NH,IA,27.2,NW,Dyersville
-92.98,43.459,OTRA,Otranto Co Park,CP,641.732.5204,,,,,WE DP FT DW SH,IA,0.3,E,Otranto
-93.532,41.246,OTTE,Otter Creek Co Park,CP,515.961.6169,,primitive - walk to sites only,,,DP SH NR,IA,7.9,S,Indianola
-92.52,42.052,OTTE,Otter Creek Lake and Park,CP,641.484.2231,,,83,,E DP FT DW SH NR,IA,5,NE,Toldedo
-92.43,41.01,OTTU,Ottumwa City Park,CP,641.682.7873,,,,,E DP DW SH,IA,1.2,W,Ottumwa
-91.508,41.909,PALI,Palisades Kepler State Park,SP,319.895.6039,all year,,50,,E DP DW SH RS L$,IA,4.8,W,Mt.Vernon
-94.076,41.292,PAMM,Pammel County Park,CP,515.462.3536,,,40,,WE DW SH,IA,4.2,SW,Winterset
-90.687,41.52,PART,Park Terrace - West Lake County Park,CP,,,,,,WES DP FT DW SH,IA,,,Davenport
-94.11,41.835,PATT,Pattee Park,CP,515.465.4958,,register at Police Department at 908 Willis Avenue in Perry,,,E DP L$,IA,0.3,SW,Perry
-95.943,42.2,PETE,Peters Park - Rodney Pits Rec Area,CP,,all year,,25,,E DP VT DW L$,IA,0.6,SE,Rodney
-91.106,42.209,PICT,Pictured Rocks Co Park,CP,,,primitive,,,NH NR,IA,4.6,SE,Monticello
-95.355,40.843,PIER,Pierce Creek Rec Area,CP,712.542.3864,,,20,,E,IA,2.6,W,Essex
-91.165,42.993,PIKE,Pikes Peak State Park,SP,563.873.2341,all year,,77,,E DP DW SH RS L$,IA,2.3,S,McGregor
-93.647,42.783,PIKE,Pikes Timber,CP,,,,,,E FT N$,IA,5.6,NE,Clarion
-95.043,41.146,PILO,Pilot Grove Co Park,CP,,,,16,,E NS NR,IA,3,W,Grant
-93.561,43.254,PILO,Pilot Knob State Park,SP,641.581.4835,all year,,60,,E DP DW SH RS L$,IA,3.9,E,Forest City
-91.435,42.454,PIN,Pin Oak Co Park,CP,,,,,,E FT DW,IA,2.5,SE,Manchester
-90.529,41.715,PING,Pine Grove - Scott County Park,CP,,,,,,E DP FT DW SH,IA,,,Long Grove
-93.078,42.371,PINE,Pine Lake State Park,SP,641.858.5832,all year,,124,,E DP DW SH RS L$,IA,1.4,E,Eldora
-93.07,42.413,PINR,Pine Ridge - Steamboat Rock,CP,641.648.4361,,,,,E DW SH,IA,0.6,N,Steamboat Rock
-95.222,40.744,PION,Pioneer City Park,CP,712.542.3864,,,,,,IA,8.2,E,Shenandoah
-92.68,43.341,PION,Pioneer Co Park,CP,,,,,,WE ND VT NS L$,IA,8,NE,Osage
-95.93,41.833,PISG,Pisgah City Park,CP,,,,6,,E DP L$,IA,0.3,NW,Pisgah
-90.38,42.21,PLEA,Pleasant Creek,COE,,,,,,NH DP NS NR,IA,24.8,SE,Dubuque
-91.814,42.119,PLEA,Pleasant Creek State Rec Area,SRA,319.436.7716,all year,,69,,E DP DW SH RS L$,IA,3.8,N,Palo
-94.198,40.711,POE,Poe Hollow County Park,CP,641.464.2787,,,5,,E FT NS,IA,2,E,Mount Ayr
-91.436,40.714,POLL,Pollmiller Park,CP,319.376.2341,,,,,E DP DW SH,IA,0.8,E,West Point
-95.788,41.071,PONY,Pony Creek Co Park,CP,,,,,,E L$,IA,3.7,N,Pacific Juncti
-93.434,42.585,POPE,Popejoy Conservation Park,CP,,,,,,E VT L$,IA,0.7,SW,Popejoy
-95.338,41.471,POTT,Pottawattamie County Fairgrounds,CP,712.981.7072,,,60,,WES DP DW SH L$,IA,0.4,S,Avoca
-93.057,42.56,PRAI,Prairie Bridges Park,CP,641.485.1623,,,120,,WES DP DW SH,IA,0.4,NW,Ackley
-93.688,41.749,PRAF,Prairie Flower - Saylorville Lake,COE,515.984.6925,early may-mid oct,,250,,WES DP DW SH RS PA,IA,11,N,Des Moines
-92.888,40.858,PRAR,Prairie Ridge - Rathbun Lake,COE,641.724.3103,early may-late sep,,55,,E DP DW SH RS PA,IA,4.3,SW,Moravia
-95.212,41.6,PRAI,Prairie Rose State Park,SP,712.773.2701,all year,,95,,E DP 60ft DW SH RS L$,IA,6.9,SE,Harlan
-95.623,43.084,PRIM,Primghar City Park,CP,,,,15,1506,E DP FT DW SH,IA,0.3,SE,Primghar
-91.809,43.299,PULP,Pulpit Rock City Campground,CP,563.382.9551,,,200,,E DP DW SH L$,IA,1.2,W,Decorah
-92.668,41.198,QUER,Quercus Wilderness Area,CP,,,primitive,5,,NH,IA,6.5,S,Oskaloosa
-94.756,42.228,RAIN,Rainbow Bend Co Park,CP,,,,,,,IA,,,Lake City
-95.731,42.575,RANN,Ranney Knob Area,CP,712.225.6709,,may be closed - flooding - call first,12,,NH ND VT NS L$,IA,0.7,W,Washta
-93.28,40.998,REDH,Red Haw State Park,SP,641.774.5632,all year,,80,,E DP DW SH RS L$,IA,2.4,SE,Chariton
-93.19,42.254,REEC,Reece Park,CP,,,,,,NH ND FT DW NS,IA,6.4,W,Union
-95.149,42.438,REIF,Reiff Park,CP,,,,7,,WE DP FT DW,IA,1.6,S,Early
-94.628,42.087,RICH,Richey Campground,CP,,,,15,,E VT NW L$,IA,5.6,E,Glidden
-91.502,41.491,RIVJ,River Junction Access,CP,,,,,,NH ND VT NS,IA,3.9,W,Lone Tree
-96.311,43.213,RIVB,Rivers Bend,CP,,,,,,E DP DW SH,IA,1,NW,Rock Valley
-92.777,43.436,RICP,Riverside Co Park,CP,641.732.5204,,,,,WE DP FT DW SH,IA,0.3,SE,Stacyville
-94.669,41.877,RICR,Riverside Park - Coon Rapids,CP,712.792.4614.,,,12,,WE DP DW SH L$,IA,0.6,NE,Coon Rapids
-93.813,42.468,RIVS,Riverside Park - Webster City,CP,515.832.9193,,,,,E DP DW SH L$,IA,0.2,SE,Webster City
-90.185,41.852,RIVC,Riverview City Park - Clinton,CP,563.243.1260,,,,,WES DP DW SH,IA,0.5,N,Clinton
-92.902,42.064,RIVV,Riverview Park - Marshalltown,CP,641.754.5715,,,,,WES DP DW SH L$,IA,1.1,N,Marshalltown
-92.664,42.47,ROAD,Roadman Roadside Park,CP,319.345.2688,,overnight camping in parking area only,,,NH ND FT DW NS N$,IA,1.9,W,Dike
-93.042,41.426,ROBE,Roberts Creek Park,CP,641.627.5507,,dupe,,,E DP DW SH,IA,6.6,W,Pella
-92.645,41.507,ROBT,Robertson Access,CP,,,primitive,,,NH FT,IA,2.8,N,New Sharon
-95.736,43.399,ROBI,Robinson Park,CP,,,restrooms may not be clean,13,1508,WE DP DW SH L$,IA,0.8,E,Sibley
-90.328,41.75,ROCM,Rock Creek County Marina and Campground,CP,563.259.1876,,,,,E DP,IA,4.6,SW,Camanche
-92.837,41.761,ROCK,Rock Creek State Park,SP,641.236.3722,all year,,200,,E DP 60ft DW SH RS L$,IA,4.7,NE,Kellogg
-94.634,42.4,ROCK,Rockwell City RV Park,CP,,,,,,E DP DW SH,IA,,,Rockwell City
-92.083,42.196,RODG,Rodgers County Park,CP,319.472.4942,,,50,,E DW SH,IA,4,NW,Vinton
-92.981,40.849,ROLL,Rolling Cove - Rathbun Lake,COE,641.647.2464,early may-late sep,,30,,NH ND NS RS L$,IA,10,NW,Centerville
-95.327,41.732,ROSM,Rosman Glendale Farm Rec Area,CP,,,,,,E FT DW,IA,5.5,N,Harlan
-94.964,40.609,ROSS,Ross County Park,CP,712.542.3864,,no facilities,,,NH ND NT NW NS NR,IA,4.1,NE,Braddyville
-91.81,40.914,ROUN,Round Prairie Park,CP,641.472.4421,,,,,E VT DW,IA,10.4,SE,Fairfield
-92.894,43.127,RUDD,Rudd Eastside Park,CP,,,,14,,WE DW SH,IA,0.6,E,Rudd
-94.985,42.419,SACC,Sac City Park,CP,712.662.4295,,,,,E,IA,0.3,SE,Sac Cityt
-94.497,40.629,SAND,Sands Timber Rec Area,CP,712.523.2852,,,7,,E,IA,1.4,NW,Blockton
-91.597,41.814,SAND,Sandy Beach - Coralville Lake,COE,319.338.3543,early may-late sep,,60,,WES DP DW SH RS PA,IA,11.1,N,Iowa City
-96.118,43.064,SAND,Sandy Hollow Park,CP,712.722.2491,,,,,WES DP FT DW SH L$,IA,3.1,E,Sioux Center
-92.161,43.195,SAUD,Saude Rec Area,CP,,,,20,,PT,IA,16,N,Fredericksburg
-91.17,41.499,SAUL,Saulsbury Bridge,CP,563.264.5922,,3 camping areas - tenting is walk-to sites,35,,E DP FTVT DW SH,IA,8.3,NW,Muscatine
-95.672,41.805,SCHA,Schaben County Park,CP,712.647.2785,,,,,E DW SH,IA,5,SW,Dunlap
-95.289,43.151,SCHA,Scharnberg Co Park,CP,712.262.2187,,swim,62,,E DW SH,IA,2.1,E,Everly
-95.411,41.775,SCHI,Schimerowski Rec Area,CP,712.744.3403,,,,,E FT DW,IA,0.3,E,Earling
-90.527,41.714,SCOT,Scott County Park,CP,563.328.3282,,,400,,E DW,IA,4.9,NE,Eldridge
-91.633,42.599,SCOU,Scout Park - Lamont,CP,563.924.2194,,,,,E NS,IA,0.5,E,Lamont
-93.12,40.67,SEYM,Seymour Lake Co Park,CP,,,primitive - undesignated sites,20,,NH FT DW,IA,0.8,S,Seymour
-90.878,41.446,SHAD,Shady Creek  - Mississippi River,COE,563.262.8090,early may-mid oct,,50,,E DP DW SH RS PA,IA,8.7,E,Muscatine
-92.591,42.723,SHER,Shell Rock Rec Area,CP,,,,40,,E DP FT DW SH,IA,1,NW,Shell Rock
-93.044,43.174,SHEL,Shellrock River Co Preserve,CP,641.423.5309,,primitive,,,NH ND VT NS N$,IA,2.9,NW,Nora Springs
-90.784,41.78,SHEM,Sherman Co Park,CP,,,,,,E VT L$,IA,3.4,SW,Calamus
-91.677,40.615,SHIM,Shimek State Forest,SF,319.878.3811,all year,,,,NH DP SH RS,IA,3.9,SE,Farmington
-94.397,43.053,SIEM,Siems County Park,CP,515.295.2138,,,20,,E DP,IA,1.4,SE,Whittemore
-92.143,42.638,SIGG,Siggelkov County Park,CP,,,,,,NH ND NS,IA,4.8,N,Dunkerton
-95.326,43.448,SILE,Silver Lake City Park - East,CP,712.832.3588,,,,,WE L$,IA,0.4,SW,Lake Park
-95.35,43.441,SILS,Silver Lake City Park - South,CP,712.832.3588,,,,,WE,IA,1.6,SW,Lake Park
-93.42,43.485,SILV,Silver Lake Co Park,CP,,,,8,,E NW NR L$,IA,10.4,W,Northwood
-91.322,42.426,SILP,Silver Lake County Park,CP,,,,,,NH FT DW,IA,0.5,SE,Delhi
-95.591,42.649,SILS,Silver Sioux Recreation Area,CP,712.225.6709,,,,,E DP FT DW SH L$,IA,2.9,NE,Quimby
-91.97,41.25,SKUN,Skunk River Access,CP,,,primitive,,,NH,IA,4.6,N,Richland
-93.845,40.653,SLIP,Slip Bluff County Park,CP,641.446.7307,,,16,,E,IA,5.1,NE,Lamoni
-94.243,43.122,SMIT,Smith Lake County Park,CP,515.295.2138,,,50,,E DP DW SH,IA,3.6,N,Algona
-91.111,41.193,SNIV,Snively Access,CP,319.523.8381,,,30,,E L$,IA,3.9,E,Wapello
-96.337,42.284,SNYD,Snyder Bend County Park,CP,712.946.5622,,,45,,E DP DW SH L$,IA,3,SW,Salix
-94.215,41.079,SOUT,South - Three Mile Co Rec Area,CP,641.347.5100,,,,,E DP DW SH NR,IA,3.6,N,Afton
-91.672,43.442,SOUB,South Bear Co Park,CP,,,,5,,NH ND VT NS NR N$,IA,0.2,W,Highlandville
-92.987,42.744,SOUF,South Fork Access  - Dumont Park,CP,319.278.4237,,no facilities,,,NH ND NT NW NS NR,IA,16.4,W,Clarksville
-93.994,43.083,SOUP,South Park - Wesley,CP,,,very few sites,5,,E ND NS,IA,,,Wesley
-90.17,42.063,SOUS,South Sabula Lakes County Park,CP,,,,,,E DP DW SH,IA,25.4,E,Maquoketa
-95.954,42.22,SOUT,Southwood Conservation Area,CP,712.889.2215,,,30,,E DW SH,IA,1.3,SW,Smithland
-92.239,42.909,SPLI,Split Rock County Park,CP,641.394.4714,,,54,,E DW SH,IA,4.4,SW,Fredericksburg
-92.68,42.786,SPOC,Sportsman Park - Clarksville,CP,319.278.4237,,tent only,,,NH DP FT DW NS L$,IA,0.6,W,Clarksville
-94.21,41.847,SPOD,Sportsman Park - Dawson,CP,515.465.3577,,,18,,E NR L$,IA,0.7,NE,Dawson
-94.291,42.068,SPRL,Spring Lake County Park,CP,515.386.5674,,,125,,E DP,IA,5.6,NE,Jefferson
-94.467,41.774,SPRI,Springbrook State Park,SP,641.747.3591,all year,,120,,E DP DW SH RS L$,IA,7,N,Guthrie Center
-90.436,42.304,SPRU,Spruce Creek County Park,CP,563.652.3783,,,85,,WE DP DW SH,IA,3.1,N,Bellevue
-91.556,42.02,SQUA,Squaw Creek County Park,CP,319.892.6450,,,60,,E DP 40ft DW SH L$,IA,2.3,SE,Marion
-94.29,41.95,SQUI,Squirrel Hollow Co Park,CP,,early apr-late oct,,30,,E,IA,6.4,SE,Jefferson
-93.482,41.022,STEP,Stephens State Forest,SF,641.774.4559,all year,2 campgrounds,,,NH ND VT NS RS,IA,1.2,W,Lucas
-91.437,40.828,STPP,Stephenson Park,CP,319.986.5067,,,,,NH,IA,0.4,S,Lowell
-95.681,42.609,STIE,Stieneke Area Park,CP,712.225.6709,,,5,,NH ND FT DW NS L$,IA,2.5,SW,Quimby
-92.885,42.394,STOE,Stoehr Fishing Area,CP,,,,,,NH ND VT NS,IA,3.3,SW,Grundy
-96.47,42.557,STON,Stone State Park,SP,712.255.4698,all year,,30,,E RS,IA,5.3,NW,Sioux City
-94.848,42.579,STRA,Straight Park,CP,,,,,,E DP L$,IA,0.2,SW,Fonda
-93.931,42.271,STRA,Stratford City Park,CP,,,,31,,E DP DW SH,IA,0.2,W,Stratford
-91.559,41.776,SUGA,Sugar Bottom - Coralville Lake,COE,319.338.3543,early may-late sep,,235,,WES DP 60ft DW SH RS PA L$,IA,4,SW,Solon
-90.683,41.529,SUMT,Summit - West Lake County Park,CP,563.328.3281,,,,,WES DP FT DW,IA,,,Davenport
-95.026,41.399,SUNN,Sunnyside Park,CP,,,,,,E DP DW SH L$,IA,0.7,SW,Atlantic
-95.025,41.398,SUNN,Sunnyside Park Campground,CP,,,,,,E DP,IA,,,Atlantic
-95.175,42.628,SUNR,Sunrise,CP,712.732.8023,,,160,,E DP DW SH L$,IA,1.7,SE,Storm Lake
-94.953,42.786,SUNS,Sunset City Park - Albert,CP,712.843.5613,,,,,E DP FT DW SH L$,IA,0.6,N,Albert City
-94.846,42.035,SWAN,Swan Lake State Park,SP,712.792.4614,,,110,,E DP DW SH NR,IA,2.3,SE,Carroll
-93.855,41.885,SWED,Swede Point Park,CP,515.795.2809,,,,,E DP DW SH L$,IA,2.2,W,Madrid
-90.739,42.431,SWIS,Swiss Valley County Park,CP,563.556.6745,,,100,,E DP DW SH,IA,6.1,SW,Dubuque
-92.422,42.225,TFCL,T. F. Clark Co Park,CP,,,,13,,E ND VT DW NS,IA,3.1,NE,Traer
-91.528,41.72,TAIW,Tailwater  - Coralville Lake,COE,319.338.3543,,,30,,E DP DW SH RS PA L$,IA,4.1,N,Iowa City
-94.072,41.021,THAY,Thayer Lake Rec Area,CP,641.782.7111,,,,,E,IA,1.2,SW,Thayer
-93.378,41.643,THOM,Thomas Mitchell County Park,CP,515.967.4889,,,49,,E,IA,1.9,SW,Mitchellville
-93.756,43.262,THOR,Thorpe Park,CP,,,,15,,E VT DW L$,IA,6,W,Forest City
-91.874,42.456,THRE,Three Elms County Park,CP,,,,,,,IA,1.2,SE,Independence
-94.213,41.085,THRM,Three Mile Rec Area,CP,641.782.7111,,north and south campgrounds,48,,E DP SH,IA,4,N,Afton
-92.536,42.631,THUN,Thunder Woman Park,,,,,,,,IA,4,W,Janesville
-93.001,42.088,TIMM,Timmons Grove County Park,CP,641.752.5490,,,18,,E FT DW NS,IA,5.5,NW,Marshalltown
-95.616,43.07,TJOS,Tjossem County Park,CP,712.295.7200,,,,,L$ L$,IA,1.3,SE,Primghar
-93.07,42.401,TOWE,Tower Rock - Steamboat Rock,CP,641.648.4361,,,,,,IA,0.3,S,Steamboat Rock
-91.716,42.318,TROY,Troy Mills Wapsi Access,CP,,,no facilities,,,NH ND NT NW NS NR,IA,5.7,SE,Quasqueton
-91.385,42.403,TURT,Turtle Creek County Park,CP,563.927.3410,,,30,,E DP,IA,6.8,SE,Manchester
-94.614,43.489,TUTT,Tuttle Lake Park,CP,712.260.6697,,,65,,E DP DW SH L$,IA,1.6,N,Dolliver
-91.881,42.818,TWIN,Twin Bridges County Park,CP,563.927.3410,,,45,,WE DP,IA,3.1,N,Maynard
-92.389,43.014,TWIE,Twin Ponds Co Park  - East,CP,641.394.4714,,,,,,IA,3.7,E,Ionia
-92.395,43.009,TWIW,Twin Ponds Co Park  - West,CP,641.394.4714,,,,,,IA,3.5,SE,Ionia
-92.725,42.125,UNIO,Union Grove State Park,SP,641.473.2556,all year,,26,,NH ND VT DW NS RS L$,IA,4.4,S,Gladbrook
-92.569,41.457,UNIO,Union Mills Access,CP,,,unknown facilities,,,NH,IA,,,New Sharon
-94.543,42.252,UNIV,University 40,CP,,,,,,NH ND NS,IA,1.3,S,Lohrville
-91.29,40.772,UPPA,Upper Augusta Skunk River Access,CP,,,,,,NH,IA,1.2,NW,Augusta
-92.137,43.348,VERN,Vernon Springs Turkey River County Park,CP,563.547.3634,,,,,E DW SH,IA,0.2,SE,Vernon Springs
-91.765,42.393,VETR,Veterans Memorial County Park,CP,319.934.3340,,,,,NH ND NS,IA,0.2,W,Quasqueton
-91.378,40.392,VICT,Victory Park,CP,319.524.7122,,,5,,WE DP NS,IA,1.3,SE,Keokuk
-95.043,40.964,VIKI,Viking Lake State Park,SP,712.829.2235,all year,,120,,E DP DW SH RS L$,IA,3.2,E,Stanton
-91.32,41.142,VIRG,Virginia Grove Rec Area,CP,319.523.8381,,,,,E PT L$,IA,4.5,NW,Morning Sun
-91.758,42.866,VOLG,Volga River  State Rec Area,SRA,,all year,,41,,NH DP DW SH RS L$,IA,2.8,NE,Fayette
-95.23,40.658,WABA,Wabash Trace Park,CP,,,tent only,,,E DW SH L$,IA,0.3,N,Coin
-91.523,42.192,WAKP,Wakpicada Natural Area,CP,319.438.6616,,,,,NH,IA,0.8,S,Central City
-92.991,41.4,WALL,Wallashuck - Red Rock Lake,COE,641.828.7522,mid apr-late sep,,80,,E DP DW SH RS,IA,3.9,W,Pella
-90.863,41.91,WALN,Walnut Grove Co Park,CP,,,,,,E FT DW SH L$,IA,0.4,N,Toronto
-93.747,41.538,WALW,Walnut Woods State Park,SP,515.285.4502,all year,,25,,WES RS,IA,3.3,SW,West Des Moines
-91.193,41.187,WAPE,Wapello Fairgrounds Park,CP,319.523.4091,,,,,WE DP,IA,0.6,NW,Wapello
-91.292,42.1,WAPS,Wapsipinicon State Park,SP,319.462.2761,all year,,25,,E DP DW SH RS L$,IA,0.7,SW,Anamosa
-91.622,40.939,WATE,Water Works Park,CP,319.986.5067,,,30,,E FT DW L$,IA,4.4,SW,Mount Pleasant
-91.619,40.938,WATE,Waterworks Park - Oakland Mills Park,CP,319.986.5067,,,,,NH,IA,4.3,SW,Mt.Pleasant
-95.682,40.681,WAUB,Waubonsie State Park,SP,712.382.2786,all year,,40,,E DP 60ft DW SH RS L$,IA,5.4,N,Hamburg
-92.076,40.646,WAUT,Waubonsie Trail Park,CP,319.397.2295,,,7,,WES DP,IA,0.3,W,Cantril
-91.474,43.258,WAUK,Waukon City Park,CP,563.568.0081,,,42,,WE DP DW SH L$,IA,0.8,S,Waukon
-91.27,40.757,WELT,Welter Recreation Park,CP,319.753.8260,,,,,NH,IA,0.3,E,Augusta
-92.643,42.636,WEST,West Fork Forest Access,CP,,,no facilities,,,NH ND NT NW NS NR,IA,5.9,SW,Shell Rock
-92.757,43.165,WESI,West Idlewild County Campground,CP,641.756.3490,,,,,NH L$,IA,2.8,NW,Floyd
-90.688,41.52,WESL,West Lake County Park,CP,563.328.3281,,2 campgrounds,140,,40ft,IA,5.7,W,Davenport
-91.536,41.725,WESO,West Overlook - Coralville Lake,COE,319.338.3543,,,90,,E DP DW SH RS PA,IA,4.4,N,Iowa City
-96.185,43.431,WEST,Westside County Park - Rock Rapids,CP,712.472.3456,,unknown facilities,8,,,IA,,,Rock Rapids
-93.024,41.383,WHIT,Whitebreast - Red Rock Lake,COE,641.828.7522,mid apr-mid sep,,130,,E DP DW SH RS,IA,5.9,NE,Knoxville
-91.887,42.194,WILD,Wildcat Bluff County Park,CP,319.472.3318,,,50,,E NS,IA,2.2,S,Urbana
-92.784,42.75,WILD,Wilder City Park,CP,319.267.2245,,,48,,E DP FT DW SH L$,IA,0.6,SE,Allison
-93.082,43.204,WILK,Wilkinson - Pioneer County Park,CP,641.423.5309,,,42,,E DP DW SH L$,IA,0.4,E,Rock Falls
-95.053,41.906,WILL,Willow Creek City Park - Manning,CP,712.655.3131,,,,,WE DP FT DW L$,IA,,,Manning
-96.155,42.803,WILC,Willow Creek Park - Le Mars,CP,712.546.8360,,,20,,WE DW SH,IA,0.8,NE,Le Mars
-95.786,41.772,WILL,Willow Lake County Rec Area - Woodbine,CP,,,,,,E DW SH,IA,4.8,NW,Woodbine
-96.01,41.492,WILS,Wilson Island State Rec Area,SRA,712.642.2069,all year,,135,,E DP 60ft DW SH RS L$,IA,7.7,SW,Missouri Valle
-94.545,40.84,WILS,Wilson Lake County Park,CP,,,,10,,E,IA,3,S,Lenox
-91.489,40.642,WILP,Wilson Lake Park - Fort Madison,CP,319.463.7673,,,,,E DP,IA,9.2,W,Fort Madison
-94.829,40.73,WIND,Windmill Lake Co Park,CP,,,,14,,E,IA,3.7,E,New Market
-94.005,41.328,WINT,Winterset City Park,CP,,,,34,,WES DP DW SH,IA,0.5,E,Winterset
-93.18,42.773,WKW,WKW Conservation Park,CP,641.456.4375,,,,,E ND VT NS,IA,2.6,NE,Hampton
-94.705,43.312,WOLD,Wolden Rec Area,CP,712.867.4422,,,,,E DP DW SH L$,IA,4.6,E,Wallingford
-92.793,42.211,WOLF,Wolf Creek Rec Area,CP,,,,22,,E VT DW L$,IA,10.5,S,Grundy Center
-92.802,42.893,WUNS,Wunsch Memorial Park,CP,319.278.4237,,dupe,,,E DP NS L$,IA,0.2,S,Greene
-93.472,41.551,YELB,Yellow Banks County Park,CP,515.266.1563,,,60,,E DP DW SH,IA,3.5,SE,Pleasant Hill
-91.228,43.176,YELL,Yellow River State Forest,SF,563.586.2254,all year,3 campgrounds,150,,NH RS L$,IA,4.1,SW,Harpers Ferry
-95.315,42.03,YELS,Yellow Smoke Park,CP,712.263.2748,,,60,,E DP DW SH,IA,2.3,E,Denison
-92.201,41.378,YENR,Yenruogis County Park,CP,,,primitive,,,NH ND NS,IA,3.1,N,Sigourney
-90.39,40.986,ALLI,Allison Lake Storey,CP,309.344.1534,,,,,E DP L$,IL,2.8,N,Galesburg
-90.768,41.438,ANDA,Andalusia Slough - Missssippi River,COE,563.263.7913,,,25,,NH ND NS NR,IL,11.5,SW,Davenport
-90.204,40.195,ANDE,Anderson Lake State Conservation Area,SCA,309.759.4484,,,100,,NH DP NR,IL,10,NE,Browning
-90.052,42.449,APPL,Apple River Canyon State Park,SP,815.745.3302,all year,,50,,WES RS PA,IL,4.6,SE,Apple River
-90.801,40.453,ARGY,Argyle Lake State Park,SP,309.776.3422,early may-late dec,,160,,E DP DW SH RS PA,IL,1.9,N,Colchester
-88.91,37.826,ARRO,Arrowhead Lake,CP,618.983.3535,all year,older place but clean and nice,55,,WE DP FT DW SH L$,IL,1,NE,Johnston City
-91.479,40.112,BEAR,Bear Creek - Mississippi River,COE,217.222.0918,,,30,,NH ND NS NR,IL,5.9,W,Marcelline
-89.976,39.211,BEAV,Beaver Dam State Park,SP,217.854.8020,early apr-late dec,,75,,E DP DW SH RS PA,IL,3.7,N,Plainview
-90.939,41.054,BIGR,Big River State Forest,SF,309.374.2496,,,100,,NH NR,IL,3.2,S,Keithsburg
-88.175,41.838,BLAW,Blackwell Forest Preserve,CP,630.933.7248,,Camp Fri Sat nights only - more on holidays,64,,E DP FT DW SH RS,IL,,,
-91.056,41.348,BLAI,Blanchard Island - Mississippi River,COE,563.263.7913,,,35,,NH ND NS NR,IL,5.3,S,Muscatine
-90.403,42.287,BLAL,Blanding Landing - Mississippi River,COE,563.582.0881,mid may-mid oct,,40,,E DP DW SH RS PA L$,IL,6.6,W,Hanover
-88.614,39.554,BOWO,Bo Wood  - Lake Shelbyville,COE,217.774.3951,mid apr-late oct,,80,,WES DP SH RS,IL,3.2,S,Sullivan
-89.236,38.695,BOUL,Boulder  - Lake Carlyle,COE,618.594.5253,mid apr-mid oct,,90,,WES DP DW SH RS PA,IL,9.4,NE,Carlyle
-88.884,37.581,BUCK,Buck Ridge  -  Lake Of Egypt,NF,618.658.2111/618.253.7114,,,41,,NH NR,IL,7.1,W,Ozark
-88.194,38.1,BURR,Burrell City Park,CP,618.382.9920,,,,,E DP DW SH,IL,2,W,Carmi.
-88.244,37.578,CAMP,Camp Cadiz,NF,618.658.2111/618.253.7114,,,15,,NH ND NS NR L$,IL,4.9,E,Karber's Ridge
-89.975,40.561,CANT,Canton Lake,CP,,,,,,E DW SH,IL,3.1,E,Canton
-89.537,40.711,CARL,Carl Spindler,CP,309.699.3549,,,,,E DP DW SH,IL,3.8,NE,East Peoria
-91.152,40.425,CART,Carthage City Park,CP,,,,,,E L$,IL,1,NW,Carthage
-88.156,37.469,CAVE,Cave - In - Rock State Park,SP,618.289.4325,,,60,,E DP SH NR,IL,0.5,E,Cave-In-Rock
-88.188,42.446,CHAI,Chain OLakes State Park,SP,847.587.5512,all year,,240,,E DP SH RS PA,IL,2.5,E,Spring Grove
-88.538,38.665,CHAR,Charley Brown City Park,CP,618.662.8202,early apr-late sep,,,,WE DP DW L$,IL,2.8,W,Flora
-88.788,40.163,CLIN,Clinton Lake  State Rec Area,SRA,217.935.8722,all year,,310,,WES DP 40ft DW SH RS PA,IL,1.2,S,DeWitt
-89.261,38.657,COLE,Coles Creek  - Lake Carlyle,COE,618.594.5253,early may-late sep,,150,,WES DP DW SH RS PA,IL,6.8,NE,Carlyle
-89.03,40.642,COML,Comlara County Park,CP,309.726.2022,,,137,,E DP DW SH,IL,3.4,NW,Hudson
-88.759,39.452,COON,Coon Creek - Shelbyville Lake,COE,217.774.3951,early may-late sep,,230,,WES DP DW SH RS,IL,3.6,NE,Shelbyville
-89.12,37.74,CRAB,Crab Orchard  National Wildlife Refuge,NWR,618.985.4983,,,250,,E DP DW SH NR L$,IL,5.4,E,Carbondale
-87.899,39.003,CRAW,Crawford County Fairgrounds,CP,,,,,,E DP,IL,0.5,E,Oblong
-89.361,38.632,DAMW,Dam West  - Lake Carlyle,COE,618.594.4410,early apr-late oct,,110,,WES DP 100ft DW SH RS PA L$,IL,1.6,NE,Carlyle
-89.839,39.915,DEER,Deer Park,CP,217.632.7983,,,,,E DP DW SH,IL,6.7,S,Petersburg
-90.942,40.959,DELA,Delabar State Park,SP,309.374.2496,all year,,60,,E DP RS PA,IL,1.9,N,Oquawka
-88.207,41.377,DESP,Des Plaines State Conservation Area,SCA,815.423.5326,,,22,,NH NR,IL,5.7,NW,Wilmington
-88.21,41.311,DESP,Desplaines Conservational Park,CP,815.423.5326,,noisy,,,E DP DW L$,IL,3.3,W,Wilmington
-89.512,37.639,DEVI,Devils Backbone Park,CP,,,on Miss river,20,,WES DP FT DW,IL,1.2,NW,Grand Tower
-89.111,37.644,DEVI,Devils Kitchen,NF,618.457.5004,,,45,,E DP SH NR,IL,5.6,E,Makanda
-88.666,37.383,DIXO,Dixon Springs State Park,SP,618.949.3394,early apr-late dec,,50,,E DP RS PA,IL,9.9,W,Golconda
-89.226,37.984,DUQU,Du Quoin State Fair Campground,CP,,,,,,E DP DW SH,IL,2,S,Du Quoin
-88.71,39.501,EAGL,Eagle Creek State Park,SP,217.756.8260,early apr-late dec,,55,,E DP DW SH RS PA,IL,2.7,SE,Findlay
-89.327,38.663,ELDO,Eldon Hazlet State Park,SP,618.594.3015,all year,,350,,E DP DW SH RS PA,IL,4.4,NE,Carlyle
-88.881,39.866,FARI,Faries Park,CP,,,,37,,E DP FT DW SH,IL,4.3,NE,Decatur
-88.966,37.533,FERN,Ferne Clyffe State Park,SP,618.995.2411,early apr-late dec,,110,,E DP 40ft SH RS PA,IL,1.5,S,Goreville
-90.396,41.567,FISH,Fishermans Corner - Mississippi River,COE,309.496.2720,early apr-mid oct,,55,,E DP 45ft DW SH RS PA L$,IL,1,NE,Hampton
-87.564,40.01,FORS,Forest Glen County Preserve,CP,217.662.2142,,,42,,E DP SH,IL,8.6,SE,Danville
-89.147,36.987,FORT,Fort Defiance State Park,SP,,all year,,16,,E ND VT NS NR L$,IL,2.1,SE,Cairo
-89.909,37.969,FORK,Fort Kaskaskia State Park,SP,618.859.3741,,,,,E DP NR,IL,2.8,S,Ellis Grove
-88.707,37.147,FORM,Fort Massac State Park,SP,618.524.4712,mid apr-late oct,,50,,E DP DW SH RS PA,IL,1.4,E,Metropolis
-88.135,39.403,FOXR,Fox Ridge State Park,SP,217.345.6416,all year,,45,,E DP 40ft DW SH RS PA,IL,6.8,S,Charleston
-89.86,41.28,FRAN,Francis City Park,CP,309.852.0511,,,,,E DP,IL,4.1,NE,Kewanee
-88.781,40.031,FRIE,Friends Creek Regional Park,CP,217.795.2031,,,35,,E DP DW SH L$,IL,3.2,NW,Cisco
-90.077,40.463,FULT,Fulton County Rec Area,CP,309.668.2931,,,40,,E DP DW SH,IL,2.6,SW,St David
-89.194,37.604,GIAN,Giant City State Park,SP,618.457.4836,all year,,135,,E DP 40ft SH RS PA L$,IL,,,
-88.373,39.457,GIBS,Gibson City Park,CP,,,,4,,WE DP DW L$,IL,,,
-88.485,37.375,GOLC,Golconda Marina,SP,618.683.5875,,uknown facilities,,,NH NR,IL,0.5,N,Golconda
-87.831,42.321,GREA,Great Lakes Naval Military,MIL,847.688.5417,,military only - do not use our lat/lon - contact them for directions and info,,,RS,IL,0.6,SE,North Chicago
-90.867,39.426,GREA,Great River Road Campground,CP,217.734.2113,,,,,E DP,IL,1.2,S,Pleasant Hill
-89.516,41.631,GREE,Green River State Wildlife Area,SP,815.379.2324,,,50,,NH DP NR,IL,6.5,S,Harmon
-88.931,38.078,GUNC,Gun Creek -   Rend Lake,COE,618.724.2493,mid mar-late nov,,100,,E DP 60ft DW SH RS PA,IL,5.7,N,Benton
-88.401,38.056,HAMI,Hamilton County State Conservation Area,SCA,618.773.4340,all year,,70,,E DP DW SH RS PA,IL,7.8,E,McLeansboro
-90.982,40.85,HEND,Henderson County State Conservation,SCA,309.374.2496,,,35,,NH NR,IL,17.4,S,Keithsburg
-89.714,41.399,HENN,Hennepin Canal Parkway State Park,SP,815.454.2328,,,,,NH NR,IL,3,NE,Sheffield
-88.689,39.317,HIDD,Hidden Springs State Forest,SP,217.644.3091,all year,,,,E DP RS PA,IL,4.5,SW,Strasburg
-87.986,38.25,HILL,Hilltop Campground - Grayville,CP,618.375.3671,,unknown facilities,,,E DP DW SH L$,IL,,,Grayville
-89.045,42.439,HONO,Hononegah Forest Preserve,CP,815.877.6100,,,65,,E DP DW SH L$,IL,1.7,SE,Rockton
-90.066,38.699,HORR,Horseshoe Lake Recreation Area,SP,618.931.0270,all year,,50,,E DP RS PA L$,IL,6.6,NE,East St. Louis
-89.331,37.118,HORS,Horseshoe Lake State Conservation Area - Cairo,SCA,618.776.5689,all year,,90,,NH DP DW SH RS PA,IL,1.5,E,Miller City
-88.716,41.322,ILLS,Illini State Park,SP,815.795.2448,all year,,,,E DP DW SH RS PA,IL,0.7,SW,Marseilles
-90.403,41.565,ILLI,Illiniwek Campground,CP,,,,60,,WE DP FT DW SH,IL,0.7,NE,Hampton
-87.807,42.434,ILLB,Illinois Beach State Park,SP,847.662.6433,,,245,,E DP DW SH NR,IL,1.5,SE,Zion
-90.074,39.996,JIME,Jim Edgar Panther Creek WA,SP,217.452.7741,all year,,75,,WES DP DW SH RS PA,IL,5.6,SE,Chandlerville
-89.521,37.834,JOHC,Johnson Creek,NF,618.253.7114/618.253.7114,,,20,,NH DP NS NR L$,IL,11.2,NW,Murphysboro
-89.891,41.33,JOHS,Johnson Sauk Trail State Park,SP,309.853.5589,early may-late nov,,95,,E DP 40ft DW SH RS PA,IL,6.1,N,Kewanee
-89.797,40.824,JUBI,Jubilee College State Park,SP,309.446.3758,early may-late dec,,165,,E DP SH RS PA,IL,4.8,E,Brimfield
-88.477,39.711,JURG,Jurgens City Park,CP,217.543.2294,,,,,E DP DW SH,IL,0.3,SW,Arthur
-90.609,39.299,KAMP,Kampsville River Park,CP,,,unknown facilities,,,E DP NS,IL,,,Kampsville
-87.979,41.204,KANK,Kankakee River State Park,SP,815.933.1383,all year,,260,,E DP 40ft SH RS PA,IL,5.5,W,Bourbonnais
-90.943,41.098,KEIT,Keithsburg Riverside Campground,CP,309.374.9070,,,60,,WE DP FT DW SH,IL,0.1,SW,Keithsburg
-87.753,40.139,KICK,Kickapoo State Park,SP,217.442.4915,all year,,185,,E DP 40ft DW SH RS PA,IL,2.1,NE,Oakwood
-89.831,42.422,LAKL,Lake - Le - Aqua - Na State Park,SP,815.369.4282,early may-late dec,,170,,E DP SH RS PA,IL,3,N,Lena
-89.316,41.324,LAKD,Lake De Pue City Park,CP,815.447.2177,,,25,,E,IL,0.4,W,De Pue
-89.612,39.195,LAKY,Lake Lou Yaeger,CP,,early apr-late oct,2 campgrounds,,,WE DP FT DW SH L$,IL,2.7,NE,Litchfield
-88.471,39.346,LAME,Lake Mattoon Campground East,CP,217.234.3611,,long term camping only,,,WE DP DW SH,IL,10.8,SW,Mattoon
-88.47,39.359,LAMW,Lake Mattoon Campground West,CP,217.234.3611,,short term camping OK,,,WE DP DW SH,IL,10,SW,Mattoon
-89.383,37.779,LAKM,Lake Murphysboro State Park,SP,618.684.2867,all year,,75,,E DP DW SH RS PA,IL,2.8,W,Murphysboro
-89.262,39.525,LAKT,Lake Taylorville City Campground,CP,217.824.5606,,,,,E DP,IL,2.4,SE,Taylorville
-87.719,39.339,LINT,Lincoln Trail State Park,SP,217.826.2222,all year,,240,,E DP SH RS PA,IL,3.8,S,Marshall
-89.845,39.981,LINC,Lincolns New Salem Historic Site,AUTH,217.632.4003,,,200,,E DP SH,IL,2.1,S,Petersburg
-88.76,39.434,LITH,Lithia Springs - Shelbyville Lake,COE,217.774.3951,mid apr-late oct,,120,,WES DP 85ft DW SH RS,IL,2.5,NE,Shelbyville
-89.162,37.644,LITT,Little Grassy Lake - Crab Orchard NWR,USFW,618.985.4983,,camping only for those engaged in wildlife activities,105,,WES DP FT DW SH NR,IL,3.1,NE,Makanda
-88.665,40.892,LIVI,Livingston County 4-H Park,CP,815.822.3997,,,,,WE DP FT DW SH,IL,2,W,Pontiac
-90.154,41.898,LOCK,Lock and Dam 13 - Mississippi River,COE,,,,,,NH NR,IL,2.2,N,Fulton
-88.739,39.455,LONE,Lone Point - Lake Shelbyville,COE,217.774.3951,mid may-late aug,,100,,WES DP DW SH RS,IL,4.4,NE,Shelbyville
-89.323,42.033,LOWD,Lowden Memorial State Park,SP,815.732.6828,early may-late dec,,130,,E DP DW SH RS PA,IL,1.3,N,Oregon
-88.6,42.285,MARE,Marengo Ridge County Park,CP,,early may-late oct,,,,DP DW L$,IL,2.6,N,Marengo
-87.813,39.448,MILL,Mill Creek Park,CP,217.889.3601,,,140,,E DP DW SH,IL,7.5,NW,Marshall
-90.164,42.144,MISS,Mississippi Palisades State Park,SP,815.273.2731,all year,,241,,E DP DW SH RS PA,IL,3.5,N,Savanna
-88.728,40.413,MORA,Moraine View State Park,SP,309.724.8032,all year,,200,,E DP 40ft DW SH RS PA,IL,4.7,NE,LeRoy
-89.967,41.841,MORR,Morrison Rockwood State Park,SP,815.772.4708,early may-late dec,,90,,E DP 40ft DW SH RS PA,IL,2.2,N,Morrison
-91.384,40.544,NAUV,Nauvoo State Park,SP,217.453.2512,all year,,150,,E DP DW SH RS PA,IL,0.4,S,Nauvoo
-89.001,38.069,NORT,North Sandusky - Rend Lake,COE,618.724.2493,early apr-late oct,,120,,WES DP DW SH RS PA,IL,6.6,NW,Benton
-88.661,37.409,OAKP,Oak Point   -   Lake Glendale,NF,618.658.2111/618.253.7114,,,74,,E DP DW SH NR L$,IL,13,E,Vienna
-88.023,39.659,OAKL,Oakland City Park,CP,,,,,,E,IL,0.4,NE,Oakland
-87.902,39.004,OBLO,Oblong Park,CP,,all year,,,,E DP DW SH L$,IL,0.4,E,Oblong
-88.773,39.445,OPOS,Opossum Creek - Shelbyville Lake,COE,217.774.3951,mid may-late aug,,80,,WES DP DW SH RS,IL,2.8,N,Shelbyville
-87.695,39.634,PARI,Paris City Park,CP,,,,,,E DP L$,IL,1.6,N,Paris
-88.36,42.071,BURN,Paul Wolff Campground - Burnidge Wolff Preserve,CP,630.444.1200,,Close to RR,90,,WE DP FT DW,IL,,,Close to RR
-89.321,42.362,PECA,Pecatonica River Forest Preserve,CP,815.877.6100,,,50,,E DP DW SH L$,IL,3.8,NE,Pecatonica
-90.542,38.977,PERE,Pere Marquette State Park,SP,618.786.3323,early may-late dec,,80,,E DP DW SH RS PA,IL,6,W,Grafton
-88.379,37.603,PHAR,Pharoah  -  Garden Of The Gods,NF,618.658.2111/618.253.7114,all year,,12,,NH DW NR L$,IL,12.9,SE,Harrisburg
-89.422,37.516,PINH,Pine Hills,NF,618.833.8576/618.253.7114,,,13,,NH ND NS NR L$,IL,9.5,NW,Jonesboro
-88.267,37.615,PINE,Pine Ridge  -  Pounds Hollow,NF,618.658.2111/618.253.7114,,lake swimming,76,,NH ND NS NR L$,IL,4.4,NE,Karber's Ridge
-90.761,39.644,PITT,Pittsfield City Lake,CP,217.285.4484,,,,,E DP L$,IL,3.4,NE,Pittsfield
-88.15,40.284,PARI,Prairie Pines Campground,CP,,,,,,E DW SH,IL,1.7,S,Rantoul
-89.926,41.672,PROP,Prophetstown State Park,SP,815.537.2926,all year,,120,,E DP DW SH RS PA,IL,0.6,E,Prophetstown
-89.425,38.005,PYRA,Pyramid State Park,SP,618.357.2574,,,80,,NH NR,IL,5.7,SW,Pinckneyville
-90.408,39.306,RAIN,Rainey City Park,CP,,,nice little town - unknown facilities,,,NH ND NS N$,IL,,,Carrollton
-89.125,39.159,RAMS,Ramsey Lake State Park,SP,618.423.2215,early apr-mid dec,,160,,E DP 40ft SH RS PA,IL,1.4,NW,Ramsey
-89.805,37.972,RAND,Randolph County State Conservation Area,SCA,618.826.2706,early apr-late dec,,95,,E RS PA,IL,4.1,N,Chester
-87.836,38.73,REDH,Red Hills Lake State Park,SP,618.936.2469,early may-late dec,,130,,E DP SH RS PA,IL,1.6,NE,Sumner
-88.656,37.523,REDB,Redbud - Bell Smith Springs,NF,618.658.2111/618.253.7114,,,21,,NH NR,IL,6,E,Ozark
-89.948,40.478,RICE,Rice Lake State Conservation Area,SCA,309.647.9184,,,35,,E NR,IL,7.2,SE,Canton
-90.066,40.301,RIVE,Riverfront City Park - Havana,CP,309.543.6240,all year,,12,,WE DP DW,IL,0.3,W,Havana
-89.617,39.857,RIVE,Riverside Park,CP,217.789.2353,,,,,E DP DW SH L$,IL,5.5,N,Springfield
-87.742,38.997,ROBI,Robinson City Park,CP,618.544.3834,,,,,E DP,IL,0.6,S,Robinson
-88.978,42.37,ROCK,Rock Cut State Park,SP,815.885.3311,all year,,240,,E DP 40ft SH RS PA,IL,5.3,NE,Loves Park
-88.39,37.693,SALI,Saline County State Conservation Area,SCA,618.276.4405,,,45,,NH DP NR,IL,3.8,SW,Equality
-88.591,38.543,SAMD,Sam Dale Lake Conservation Area,SCA,618.835.2292,all year,,,,E DP RS PA,IL,3.3,NW,Johnsonville
-88.122,39.016,SAMP,Sam Parr State Park,SP,618.783.2661,all year,,80,,E RS PA,IL,2.8,NE,Newton
-89.866,40.411,SAND,Sand Ridge State Forest - Forest City,SF,309.597.2212,all year,,27,,NH VT RS PA,IL,6.6,NE,Topeka
-89.488,39.655,SANG,Sangchris Lake State Park,SP,217.498.9208,early apr-late oct,,185,,E DP 40ft DW SH RS PA,IL,6.9,S,Rochester
-90.553,40.083,SCHU,Schuy - Rush Park,CP,,,,77,,E DP L$,IL,2.7,S,Rushville
-89.841,38.551,SCOT,Scott AFB Military,MIL,618.256.2067,,military only - do not use our lat/lon - contact them for directions and info,,,E DP FT DW RS,IL,8,E,Belleville
-89.368,42.276,SEWA,Seward Bluffs Forest Preserve,CP,815.877.6100,,,,,E DP DW SH L$,IL,2.6,N,Seward
-88.87,41.761,SHAB,Shabbona Lake State Park,SP,815.824.2106,early may-late dec,Excellent fishing. Very crowded weekends.,150,,E DP DW SH RS PA,IL,0.6,SE,Shabbona
-90.878,41.448,SHAD,Shady Creek - Mississippi River,COE,319.262.8090,,,,,E NR,IL,8.7,E,Muscatine
-89.471,39.179,SHER,Sherwood Forest,CP,217 .532.5211,,,,,E DP DW SH L$,IL,1.8,NE,Hillsboro
-90.955,39.896,SILO,Siloam Springs State Park,SP,217.894.6205,all year,,180,,E DP 40ft SH RS PA,IL,9.4,S,Clayton
-88.373,40.457,SOUC,South City (Gibson) Park,CP,,,,,,E DP DW SH L$,IL,0.6,S,Gibson City
-88.936,38.035,SOUM,South Marcum  - Rend Lake,COE,618.724.2493,early apr-late oct,,160,,WES DP DW SH RS PA L$,IL,2.8,N,Benton
-89.006,38.059,SOUS,South Sandusky -  Rend Lake,COE,618.724.2493,early apr-late oct,,150,,WES DP DW SH RS PA,IL,6.4,NW,Benton
-90.67,40.476,SPRI,Spring Lake Park - Macomb,CP,309.833.2052,early apr-late oct,,,,E DP FT DW SH L$,IL,1.1,N,Macomb
-89.847,40.474,SPRI,Spring Lake State Conservation Area,SCA,309.968.7135,,,70,,NH DP NR,IL,4.9,NW,Manito
-89.011,41.321,STAR,Starved Rock State Park,SP,815.667.4726,all year,,135,,E DP 40ft DW SH RS PA,IL,1.4,S,Utica
-88.763,38.72,STEP,Stephen A. Forbes State Park,SP,618.547.3381,mid may-late dec,,135,,E DP DW SH RS PA,IL,5.8,SE,Kinmundy
-89.235,42.464,SUGA,Sugar River Forest Preserve,CP,815.877.6100,,,,,NH SH,IL,5.3,E,Durand
-88.641,37.542,TEAL,Teal Pond,NF,,all year,,,,NH ND NS NR N$,IL,,,
-90.117,41.949,THOM,Thomson Causeway -  Mississippi River,COE,815.259.3628,mid may-mid oct,,100,,E DP DW SH RS PA L$,IL,1.1,SW,Thomson
-88.233,37.459,TOWE,Tower Rock,NF,618.658.2111/618.253.7114,,,35,,NH ND NS NR,IL,25.6,SE,Harrisburg
-89.359,37.482,TRAI,Trail of Tears State Forest,SF,618.833.4910,all year,,,,E ND NS RS PA,IL,5.4,NW,Jonesboro
-89.413,37.686,TURK,Turkey Bayou,NF,618.687.1731,,,,,NH NR N$,IL,6.9,SW,Murphysboro
-88.038,39.697,WALN,Walnut Point State Park,SP,217.346.3336,all year,,60,,E DP SH RS PA,IL,3.1,N,Oakland
-91.446,40.355,WARS,Warsaw City Campground,CP,,,,,,E DP,IL,0.7,SW,Warsaw
-89.363,38.28,WASH,Washington County Lake State Conservation Area,SCA,618.327.3137,early apr-late dec,,150,,E DP DW SH RS PA,IL,4.5,S,Nashville
-90.012,39.6,WAVE,Waverly Lake City Park,CP,,,unknown facilities,,,NH N$,IL,,,Waverly
-88.934,38.111,WAYN,Wayne Fitzgerrell State Park,SP,618.629.2320,mid may-late dec,,280,,E DP DW SH RS PA,IL,2.3,NW,Whittington
-90.898,40.233,WEIN,Weinberg - King State Park,SP,217.392.2345,all year,,19,,E RS PA,IL,2.8,E,Augusta
-88.924,40.117,WELD,Weldon Springs State Park,SP,217.935.2644,all year,,75,,E DP DW SH RS PA,IL,3.3,SE,Clinton
-89.007,38.068,WEST,West Sandusky - Rend Lake,COE,618.724.2493,,,,,WE NR,IL,2.9,SE,Sesser
-89.475,41.993,WHIP,White Pines Forest State Park,SP,815.946.3717,all year,,100,,E SH RS PA,IL,5.4,E,Polo
-88.626,39.535,WHIT,Whitley Creek - Lake Shelbyville,COE,217.774.3951,,,85,,NR,IL,4.5,S,Sullivan
-89.796,42.497,WINS,Winslow Community Park,CP,815.367.2110,,,,,WE DP 30ft NS RS L$,IL,0.4,NW,Winslow
-88.687,39.477,WOLF,Wolf Creek State Park,SP,217.459.2831,early apr-late nov,,380,,E DP DW SH RS PA,IL,5.6,NW,Windsor
-89.437,40.878,WOOD,Woodford State Conservation Area,SCA,,,,,,NH DP NR,IL,6.5,W,Low Point
-86.578,41.221,BASS,Bass Lake State Beach,SB,574.772.3382,,,60,,E DP DW SH NR,IN,5.7,SE,Knox
-85.251,41.444,BIXL,Bixler Lake City Campground,CP,260.347.9941,,,100,,WE DP DW SH,IN,0.8,E,Kendallville
-84.998,39.436,BROO,Brookville Lake,COE,765.647.2657,,,465,,E DP SH NR,IN,1.2,NE,Brookville
-86.271,39.177,BROW,Brown County State Park,SP,812.988.6406,all year,,430,,E DP 40ft SH RS,IN,2.5,SW,Nashville
-86.097,38.41,BUFF,Buffalo Trace Co Park,CP,812.364.6112,,swim,64,,WE DP FT DW SH,IN,0.7,E,Palmyra
-87.64,37.944,BURD,Burdette Park,CP,812.435.5602,,,,,E DP DW SH,IN,4.2,SW,Evansville
-86.027,39.355,CAMA,Camp Atterbury Military,MIL,812.526.1298,,military only - do not use our lat/lon - contact them for directions and info,,,RS,IN,3.2,W,Edinburgh
-87.458,39.944,CAYU,Cayuga Park Campground,CP,,,,29,,DP,IN,0.4,S,Cayuga
-86.604,38.199,CELI,Celina Recreation Area,NF,812.547.7051/812.275.5987,,,55,,E 50ft SH RS,IN,7.6,NE,Bristow
-85.402,41.341,CHAI,Chain OLakes State Park,SP,260.636.2654,all year,,410,,E DP 40ft DW SH RS,IN,3.9,S,Albion
-85.646,38.449,CHAR,Charlestown State Park,SP,812.256.5600,all year,,190,,WES DP 40ft DW SH RS,IN,1.3,E,Charlestown
-85.939,38.546,CLAR,Clark State Forest,SF,812.294.4306,,,45,,NH ND DW NS NR L$,IN,9.3,W,Henryville
-85.418,38.76,CLIF,Clifty Falls State Park,SP,812.273.8885,all year,,165,,E DP RS,IN,2.6,NW,Madison
-86.821,38.877,CRAN,Crane MWR Military,MIL,812.854.1176,,military only - do not use our lat/lon - contact them for directions and info,,,E DP FT DW SH RS,IN,4.5,E,Crane
-85.865,38.46,DEAM,Deam Lake  State Rec Area,SRA,812.246.5421,all year,,185,,E DP DW SH RS,IN,4.4,E,Borden
-86.404,40.608,DEER,Deer Creek Co Park,CP,574.652.3114,mid apr-mid oct,,,,E DW SH RS,IN,7.1,E,Camden
-86.041,38.725,DELA,Delaney Creek Park,CP,812.883.5101,,,,,E DP DW SH,IN,8.9,N,Salem
-86.885,38.317,DUBO,Dubois County Park,CP,812.482.2434,,,32,,E DW SH,IN,4,E,Huntingburg
-86.983,41.671,DUNE,Dunewood - Indiana Dunes National Lakeshore,NP,219.395.8914,,,78,,NH SH NR,IN,5.9,NE,Chesterton
-87.417,40.687,EARL,Earl Park Rest Area,CP,219.474.6108,,,,,E,IN,7,NW,Fowler
-85.809,41.58,ELKH,Elkhart County Fairgrounds,CP,574.533.3247,,,222,,WES DP DW SH,IN,1.3,E,Goshen
-86.783,38.257,FERD,Ferdinand State Forest,SP,812.367.1524,,,70,,NH ND NS NR,IN,4.9,NE,Ferdinand
-87.372,39.334,FOWL,Fowler County Park,CP,,,,,,E,IN,9.4,S,Terre Haute
-85.019,39.405,FRAN,Franklin County Park,CP,765.647.4422,,,,,WE DP FT DW SH,IN,1.3,S,Brookville
-86.573,40.692,FREN,French Post Co Park,CP,574.652.3114,,reservations required,,,NH ND PT NS RS,IN,12.2,W,Logansport
-86.589,37.952,GERM,German Ridge,NF,812.547.7051/812.275.5987,,,21,,NH ND NS NR,IN,8.9,E,Cannelton
-87.041,38.549,GLEN,Glendale State Fish and Wildlife Area,SP,812.644.7711,,,120,,E DW SH NR,IN,7.9,S,Montgomery
-87.244,38.994,GREE,Greene - Sullivan State Forest,SF,812.648.2810,,3 campgrounds,,,NH DP PT DW NS NR L$,IN,5.3,S,Dugger
-86.431,39.013,HARD,Hardin Ridge,NF,812.275.5987/812.275.5987,mid may-late dec,6 campgrounds,200,,E DP DW SH RS,IN,,,
-85.702,38.777,HARD,Hardy Lake  State Rec Area,SRA,812.794.3800,all year,,170,,E DP DW SH RS L$,IN,33.4,SW,Unknown
-87.944,38.09,HARM,Harmone State Park,SP,812.682.4821,all year,,200,,E DP 40ft DW SH RS,IN,2.8,S,New Harmony
-87.323,39.49,HAWT,Hawthorne County Park,CP,219.921.1687,,,,,E DP DW SH,IN,5.1,E,Terre Haute
-85.973,39.3,HEFL,Heflen Co Park,CP,812.526.4154,,,,,WE DW NR L$,IN,3.8,S,Edinburgh
-85.42,41.387,HIDD,Hidden Diamonds City Park,CP,260.636.2246,,,,,WE FT DW L$,IN,0.6,S,Albion
-87.959,37.814,HOVE,Hovey Lake State Fish and Wildlife Area,SFW,812.838.2927,,,,,NR,IN,8.9,SW,Mt.Vernon
-87.063,41.657,INDI,Indiana Dunes State Park,SP,219.926.1952,all year,,140,,E DP 40ft DW SH RS,IN,3.2,N,Chesterton
-85.969,39.361,IRWI,Irwin City Park,CP,812.526.3535,,,12,,E ND NS RS L$,IN,0.5,N,Edinburgh
-86.021,38.86,JACK,Jackson - Washington State Forest,SF,,,,,,NH ND NS NR,IN,,,
-85.119,41.112,JOHN,Johnny Appleseed Park,CP,260.427.6720,,,40,,E DP 40ft DW SH,IN,2.5,NE,Fort Wayne
-86.043,39.38,JOHC,Johnson County Park,CP,812.526.6809,,,50,,WE DP,IN,4.4,NW,Edinburgh.
-85.436,40.843,KILS,Kil-So-Quah - J. Edward Roush Lake,SRA,260.468.2165,all year,,90,,E PT DW RS,IN,3.5,SE,Huntington
-87.517,38.698,KIMM,Kimmell City Park,CP,812.882.1140,,,10,,E DP DW SH L$,IN,1.5,NE,Vincennes
-85.837,41.235,KOSC,Kosciusko County Fairgrounds,CP,574.269.1823,,,40,,WE DP DW SH,IN,0.9,E,Warsaw
-85.471,40.893,LAKC,Lake Clare Park Camp,CP,260.356.5218,early may-late oct,,18,,E,IN,1.5,NE,Huntington
-87.079,39.891,LAKW,Lake Waveland Park,CP,765.435.2073,,,53,,E DP FT DW SH,IN,2.1,NW,Waveland
-86.875,39.487,LIEB,Lieber  State Rec Area,SRA,765.795.4576,all year,2 campgrounds,250,,E DP SH RS,IN,4.7,SW,Cloverdale
-86.996,38.104,LINC,Lincoln State Park,SP,812.937.4710,all year,,270,,E DP DW SH RS,IN,1.2,S,Lincoln City
-87.539,38.683,LINT,Lincoln Trail,SP,217.826.2222,,2 campgrounds,,,E DP SH NR,IN,,,
-85.629,40.768,LOST,Lost Bridge State Rec Area - Salamonie Lake,SRA,260.468.2125,,3 campgrounds,,,E DP DW SH NR,IN,6.7,S,Andrews
-87.329,38.193,LYNN,Lynnville Park,CP,812.922.5144,,,70,,E DP 40ft DW SH,IN,1.8,W,Lynnville
-85.365,38.732,MADI,Madison City Park,CP,812.265.8333,,,35,,WES DP DW SH,IN,0.8,E,Madison
-86.722,38.697,MART,Martin State Forest,SF,812.247.3491,,,25,,NH NR,IN,4.3,NE,Shoals
-86.372,39.375,MASO,Mason Ridge - Morgan Monroe State Forest,SP,765.342.4026,,,30,,NR,IN,4.7,SE,Martinsville
-86.726,39.283,MCCO,McCormicks Creek State Park,SP,812.829.2235,all year,,220,,E DP 40ft DW SH RS,IN,2,E,Spencer
-85.94,40.703,MISS,Mississinewa Lake - Miami Recreation Area,SP,765.473.6528,all year,,430,,WES DP DW SH RS,IN,7.6,SE,Peru
-87.041,38.669,MONT,Montgomery Rec Park,CP,812.486.3255,,,,,E DP DW SH,IN,0.5,NE,Montgomery
-86.422,39.335,MORG,Morgan - Monroe State Forest,SP,765.342.4026,,,30,,NH ND VT DW NS NR L$,IN,6.5,S,Martinsville
-84.973,39.488,MOUR,Mounds  State Rec Area - Brookville Lake,SRA,765.647.2657,,,450,,WES DP FT DW SH RS,IN,4.9,NE,Brookville
-85.616,40.106,MOUN,Mounds State Park,SP,765.642.6627,all year,,75,,E DP DW SH RS,IN,3.4,E,Anderson
-85.582,40.745,MTET,Mt. Etna  State Rec Area,SRA,,,,,,NR,IN,8.2,S,Andrews
-85.616,38.99,MUSC,Muscatatuck,CP,812.346.2953,,,35,,E DP 60ft DW SH,IN,1.2,S,North Vernon
-86.658,38.4,NEWT,Newton Stewart  State Rec Area - Patoka Lake,SRA,812.685.2464,,,500,,E DP FT DW SH NR,IN,6.1,N,Birdseye
-86.29,38.196,OBAN,OBannon Woods State Park,SP,812.738.8232,all year,,280,,E DP SH RS,IN,9.2,W,Corydon
-85.123,40.725,OUAB,Ouabache State Park,SP,260.824.0926,all year,,125,,E DP 40ft DW SH RS,IN,2.7,E,Bluffton
-87.508,38.724,QUAT,Ouabache Trails County Park,CP,812.882.4316,,,45,,WE DP DW SH,IN,3.4,N,Vincennes
-86.844,39.316,OWEN,Owen Putnam State Forest,SF,812.829.2462,,3 campgrounds,35,,NH ND NS NR,IN,4.8,NW,Spencer
-85.064,38.745,PAUL,Paul Ogle Riverfront Park,CP,800.435.5688,,,,,WE DW,IN,0.2,SE,Vevay
-86.439,39.083,PAYN,Paynetown  State Rec Area - Monroe Lake,SRA,812.837.9546,,,320,,E DP FT DW SH RS,IN,,,
-85.271,41.681,PIGE,Pigeon River State Fish and Wildlife Area,SP,260.367.2164,,,45,,NH ND NS NR,IN,0.5,SE,Mongo
-85.842,41.246,PIKL,Pike Lake County Campground,CP,219.269.1439,,,,,E DP DW SH,IN,0.8,NE,Warsaw
-87.157,38.36,PIKS,Pike State Forest,SF,812.367.1524,,,25,,NH NR,IN,3.4,SE,Winslow
-85.022,41.708,POKA,Pokagon State Park,SP,260.833.2012,all year,,275,,E DP DW SH RS,IN,5.2,N,Angola
-86.35,41.537,POTA,Potato Creek State Park,SP,574.656.8186,all year,,290,,E DP DW SH RS,IN,4,E,North Liberty
-87.469,39.285,PRAC,Prairie Creek County Park,CP,812.462.3367,,,42,,E DP DW SH,IN,12.9,S,Terre Haute
-85.28,40.139,PRAI,Prairie Creek Park,CP,812.462.3392,,,40,,E DP DW SH,IN,6.8,SE,Muncie
-87.255,38.486,PRID,Prides Creek Co Park,CP,812.354.6798,,,,,,IN,1.3,E,Petersburg
-86.832,40.503,PROP,Prophetstown State Park,SP,756.567.4919,all year,,110,,WES DP DW SH RS,IN,0.6,SE,Battle Ground
-85.002,39.581,QUAK,Quakertown  State Rec Area - Brookville Lake,SRA,765. 647.2657,,,450,,E DP DW SH RS,IN,10.9,N,Brookville
-87.075,39.734,RACC,Raccoon - Cecil M. Harden Lake,SP,765.344.1412,all year,,310,,E DP SH RS L$,IN,8.4,E,Rockville
-86.85,39.399,RATT,Rattlesnake - Owen Putnam State Forest,SF,,,,,,NH NR,IN,6.1,N,Vandalia
-87.241,39.017,RE26,Res 26 - Greene - Sullivan State Forest,SF,812.648.2810,,,25,,NR,IN,3.8,S,Dugger
-86.412,39.263,RIDD,Riddle Point Park on Lake Lemon,,,,,,,,IN,2.3,N,Unionville
-87.218,39.782,ROCK,Rockville Lake County Park,CP,765.569.6541,,,157,,WES DP DW SH,IN,1.5,NE,Rockville
-87.076,40.405,ROSS,Ross Camp,CP,765.463.2306,,,20,,E DP DW SH NR,IN,8.9,W,West Lafayette
-86.661,38.062,SADD,Saddle Lake Rec Area,NF,812.547.7051/812.275.5987,all year,,13,,NH ND NW NS NR N$,IN,9.6,NE,Tell City
-85.629,40.768,SALL,Salamonie State Lake - Lost Bridge West SRA,SP,260.782.2181,all year,,250,,E FT SH RS,IN,7.2,SE,Lagro
-87.255,38.059,SCAL,Scales Lake Park,CP,812.897.6200,,,140,,E DP DW SH,IN,1.2,NE,Boonville
-87.076,39.931,SHAD,Shades State Park,SP,765.435.2810,all year,great trails,105,,NH DP DW SH RS,IN,4.1,NW,Waveland
-87.232,39.165,SHAK,Shakamak State Park,SP,812.665.2158,all year,,165,,E DP DW SH RS,IN,1.8,W,Jasonville
-86.019,38.07,SOUT,South Harrison Co Park,CP,812.738.8236,,,,,E DP DW SH,IN,4.3,SW,Elizabeth
-86.412,38.733,SPRI,Spring Mill State Park,SP,812.849.4129,all year,,220,,E DP DW SH RS,IN,3.3,E,Mitchell
-86.564,38.485,SPRV,Springs Valley Rec Area,NF,812.547.7051/812.275.5987,,,10,,NH ND NS NR,IN,7.1,SW,Paoli
-86.077,38.817,STAR,Starve Hollow  State Rec Area,SRA,812.358.3464,all year,,200,,WES DP DW SH RS,IN,2.3,SE,Vallonia
-85.034,41.668,STEU,Steuben County Park,CP,260.833.2401,early may-late sep,,,,E DP,IN,2.9,NW,Angola
-87.394,39.104,SULL,Sullivan County Park,CP,812.268.6251,,,450,,WE DP DW SH,IN,0.9,NE,Sullivan
-85.303,40.026,SUMM,Summit Lake State Park,SP,765.766.5873,all year,,125,,E DP DW SH RS,IN,7.6,NE,New Castle
-87.142,39.054,SUNS,Sunset City Park,CP,,,scuba - snorkel,,,WE L$,IN,1.8,NE,Linton
-86.477,38.316,SYCA,Sycamore Springs Park,CP,812.338.3846,,reservations required,,,E RS N$,IN,1.4,SW,English
-86.578,41.107,TIPP,Tippecanoe River State Park,SP,574.946.3213,all year,,120,,E DP SH RS,IN,4,N,Winamac
-86.643,38.134,TIPS,Tipsaw,NF,812.547.7051/812.275.5987,mid may-late sep,,50,,E DP DW SH RS,IN,6.9,SW,Saint Croix
-87.202,39.882,TURK,Turkey Run State Park,SP,765.597.2635,all year,,210,,E DP 40ft DW SH RS,IN,2.5,N,Marshall
-87.56,38.092,VAND,Vanderburgh 4H Campground,CP,812.867.6217,,,31,,WES DP DW SH,IN,8.3,N,Evansville
-85.229,39.078,VERS,Versailles State Park,SP,812.689.6424,all year,,225,,E DP SH RS,IN,6,SW,Milan
-86.679,40.593,WABE,Wabash and Erie Canal Park,CP,765.564.2870,,,,,E DW SH,IN,0.4,NW,Delphi
-85.824,40.791,WABA,Wabash City RV Park,CP,,,,,,,IN,0.5,S,Wabash
-86.928,38.736,WEST,West Boggs Park,CP,812.295.3421,,,220,,E DP,IN,4.1,N,Loogootee
-85.438,39.904,WESW,Westwood Park,AUTH,765.987.1232,mid may-mid oct,,45,,E DP DW SH,IN,4,SW,New Castle
-85.969,40.124,WHIR,White River Campground,CP,317.984.2705,,,106,,E DP DW SH,IN,2.3,E,Cicero
-84.942,39.612,WHIT,Whitewater Memorial State Park,SP,765.458.5565,all year,,280,,E DP 40ft DW SH RS,IN,1.7,S,Liberty
-87.517,40.971,WILL,Willow Slough State Fish and Wildlife Area,SP,219.285.2704,,,50,,NH DW SH NR,IN,3.7,NW,Morocco
-86.339,39.186,YELL,Yellowwood State Forest,SP,812.988.7945,,,80,,NH ND NS NR,IN,5.1,W,Nashville
-95.582,38.673,110M,110 Mile Park - Pomona Reservoir,COE,785.453.2201,,,25,,NH NR,KS,7.5,S,Overbrook
-97.657,39.546,AIRP,Airport Park,CP,765.243.1150,,,15,,WE DP L$,KS,1.7,S,Concordia
-98.049,37.175,ANTH,Anthony City Lake,CP,620.842.5434,,cold showers,66,,E DW SH,KS,1.8,NW,Anthony
-97.764,37.247,ARGO,Argonia River Park,CP,620.435.6553,,,14,,WES DP FT DW SH,KS,1.3,S,Argonia
-100.761,37.148,ARKA,Arkalon Park,CP,620.626.0531,,,100,2549,WE DP DW SH,KS,11.4,NE,Liberal
-95.751,38.493,ARRO,Arrow Rock - Melvern Reservoir,COE,785.549.3318,early may-late sep,,,,WE DP DW SH RS L$,KS,6.2,W,Melvern
-95.451,39.638,ATCH,Atchison County Lake,CP,913.367.1653,,,,,NH ND DW NS L$,KS,18.3,W,Atchison
-95.174,39.632,ATCH,Atchison State Fishing Lake,SP,913.367.7811,all year,primitive sites near lake,16,,NH ND NS RS L$,KS,5.5,NW,Atchison
-101.042,39.818,ATWO,Atwood Lions Club Park,CP,785.626.3428,,,9,2838,E DP DW SH,KS,0.8,N,Atwood
-101.042,39.815,ATWO,Atwood Lions Park,CP,785.626.3428,,,,2835,E FT DW SH,KS,0.5,N,Atwood
-95.779,39.457,BANN,Banner Creek,CP,785.364.4236,,,34,,WE DP DW SH L$,KS,2.4,W,Holton
-94.72,37.023,BAXT,Baxter Springs Riverside Park,CP,620.856.2112,,call first,,,E DP L$,KS,0.9,E,Baxter Springs
-97.288,39.567,BERN,Berner Memorial Campground,CP,785.455.3711,,,,,E DP FT DW SH L$,KS,0.5,W,Clifton
-101.257,37.898,BEYM,Beymer Water Recreation Park,CP,,,,8,2999,WE FT DW L$,KS,2.9,S,Lakin
-94.939,37.274,BIGB,Big Brutus Museum,CP,620.827.6177,,no tents,10,,E DP DW SH,KS,1.1,SW,West Mineral
-95.376,38.912,BLOO,Bloomington East - Clinton Lake,COE,785.843.7665,early apr-late sep,3 camping areas,300,,WE DP FT DW SH RS,KS,8.6,SW,Lawrence
-96.666,39.683,BLUE,Blue Rapids/Riverside City Park,CP,785.363.7715,,,,,E DP DW SH,KS,0.4,W,Blue Rapids
-98.005,38.633,BOLD,Boldt Bluff - Kanopolis Lake,COE,785.546.2294,,unknown facil,,,NH ND NS NR,KS,25.6,SW,Salina
-100,38.069,BUCK,Buckner Valley Park,CP,,,,,2343,E DW,KS,5.9,W,Jetmore
-95.446,37.806,CAMP,Camp Hunter Park,CP,,,no tents - check in at City Hall,,,E DP,KS,0.6,SW,Humboldt
-99.168,38.177,CAMP,Camp Pawnee,CP,620.285.3721,early apr-mid oct,,12,2024,E FT DW,KS,3.8,W,Larned
-96.536,38.693,CANN,Canning Creek - Council Grove Lake,COE,620.767.5195,mid apr-late oct,,45,,WES DP DW SH RS PA L$,KS,3.2,NW,Council Grove
-95.678,38.675,CARB,Carbolyn Park - Pomona Lake,COE,785.453.2201,early may-late sep,,30,,WE DP DW SH RS L$,KS,22.5,W,Ottawa
-95.849,37.257,CARD,Card Creek - Elk City Lake,COE,313.336.2741,,,,,E DP NS NR L$,KS,8,W,Independence
-97.163,37.275,CAVE,Cave Park,CP,,,primitive,,,NH,KS,0.3,E,Oxford
-99.732,38.808,CEBN,Cedar Bluff State Park - North Shore,SP,785.726.3212,all year,,254,2168,E DP SH RS,KS,12.9,SW,Ellis
-99.764,38.772,CEBS,Cedar Bluff State Park - South Shore,SP,785.726.3212,all year,,315,2194,RS,KS,9.1,N,Brownell
-95.609,38.693,CEDP,Cedar Park - Pomona Reservoir,COE,,,unknown facil,,,NH ND NS NR,KS,19.2,W,Ottawa
-96.152,39.703,CENT,Centralia Lake,CP,785.857.3764,,,,,E,KS,2,SW,Centralia
-98.114,39.455,CHAU,Chautauqua Park,CP,,,,,,E DP FT DW NS N$,KS,0.4,W,Beloit
-97.79,37.753,CHEE,Cheney State Park - East Shore,SP,316.542.3664,all year,,625,,RS,KS,10.5,SW,Mt.Hope
-97.832,37.724,CHEW,Cheney State Park - West Shore,SP,316.542.3664,all year,,300,,E DP DW SH RS,KS,7,NW,Cheney
-95.471,37.284,CHER,Cherryvale - Big Hill Lake,COE,620.336.2741,early apr-late oct,,30,,WES DP DW SH RS,KS,4.6,E,Cherryvale
-101.894,37.119,CIMA,Cimarron,NF,620.697.4621/719.545.8737,,,14,3389,NH ND NS NR,KS,7.7,N,Elkhart
-97.014,39.208,CLAY,Clay County Park,CP,785.461.5774,,,240,,WE DP DW SH,KS,0.5,S,Wakefield
-95.354,38.942,CLIN,Clinton State Park,SP,785.842.8562,all year,,450,,E 40ft RS,KS,6.7,W,Lawrence
-95.719,38.501,COEU,Coeur DAlene - Melvern Lake,COE,785.549.3318,early may-late sep,,,,WES DP DW SH RS L$,KS,4.4,W,Melvern
-97.086,38.391,COTT,Cottonwood Point - Marion Lake,COE,620.382.2101,mid mar-mid nov,,,,E DP DW SH RS PA,KS,4.8,NW,Marion
-97.893,39.781,COUR,Courtland City Park,CP,,,,5,,NH ND FT DW NS N$,KS,0,W,Courtland
-94.664,37.476,CRAF,Crawford State Fishing Lake,SP,602.362.3671,all year,uknown facilities,115,,E RS,KS,13.3,SE,Farlington
-94.813,37.644,CRAW,Crawford State Park,SP,620.362.3671,all year,,500,,E DP RS,KS,2,NE,Farlington
-96.936,39.085,CURT,Curtis Creek - Milford Lake,COE,785.238.5714,mid apr-late sep,,80,,WE DP DW SH RS L$,KS,6.8,NW,Junction City
-95.756,38.248,DAMA,Dam Site Area - John Redmond Reservoir,COE,620.364.8613,early may-late sep,,,,E DP DW SH RS,KS,3.8,N,Burlington
-96.069,37.646,DAMF,Damsite - Fall River Lake,COE,620.658.4445,early apr-late oct,,30,,WES DP DW SH RS PA,KS,44.9,E,El Dorado
-95.104,37.177,DANN,Danny Elliott Park,CP,620.795.4433,,,4,,WE DP DW SH,KS,0.7,NE,Oswego
-99.947,37.775,DODG,Dodge City Roadside Park,CP,,,,5,2523,NH ND NS,KS,4.1,E,Dodge City
-95.736,38.192,DRAK,Drake City Park,CP,620.364.5334,,,8,,E FT DW SH L$,KS,0.4,E,Burlington
-95.078,37.036,EAST,East River Park,CP,620.236.7541,,,,,E DP,KS,0.7,E,Chetopa
-95.747,38.536,EISE,Eisenhower State Park,SP,785.528.4102,all year,,230,,E 60ft DW SH RS,KS,8,SE,Osage City
-96.786,37.833,ELDO,El Dorado State Park,SP,316.321.7180,all year,,1100,,E 40ft SH RS,KS,4.3,E,El Dorado
-95.771,37.256,ELKC,Elk City State Park,SP,620.331.6295,all year,,100,,RS,KS,4.1,NW,Independence
-98.589,38.361,ELLI,Ellinwood City Park,CP,,,,5,1788,E DP DW L$,KS,0.6,NW,Ellinwood
-99.558,38.94,ELLI,Ellis Lakeside City Campground,CP,785.726.4812,,,18,2116,WE DP DW SH,KS,0.2,NE,Ellis
-95.084,37.047,ELMO,Elmore Park,CP,,,,,,E DP,KS,0.8,NE,Chetopa
-95.241,37.567,ERIE,Erie City Park,CP,620.244.3461,,,,,E DP L$,KS,0.2,SE,Erie
-96.097,37.652,FALR,Fall River State Park,SP,620.637.2213,all year,,165,,E SH RS,KS,12.9,SW,Toronto
-96.901,39.152,FARN,Farnum Creek - Milford Lake,COE,785.238.4636,,,75,,E DP DW SH NR L$,KS,1.6,S,Milford
-94.754,37.788,FORT,Fort Scott Lake,CP,,,,10,,E,KS,4.3,SW,Fort Scott
-94.715,37.425,FOUR,Four Oaks RV Park,CP,620.231.8310,,,12,,WE DP DW,KS,,,Pittsburg
-101.337,37.564,FRAZ,Frazier Park,CP,620.356.3097,,,,2976,E DP FT DW,KS,1.5,SE,Ulysses
-97.149,38.387,FREN,French Creek Cove - Marion Lake,COE,620.382.2101,,,,,E ND NS NR L$,KS,7.6,W,Marion
-96.854,38.894,GEAR,Geary State Fishing Lake,SP,785.461.5402,all year,primitive sites near lake,,,NH N$,KS,9.4,S,Junction City
-98.325,39.503,GLEN,Glen Elder State Park,SP,785.545.3345,all year,,425,,E DP SH RS,KS,0.9,W,Glen Elder
-99.311,38.525,GRAS,Grass Park - La Crosse,CP,785.222.2511,,,4,,E ND NS,KS,,,Lacrosse
-96.622,39.429,GREE,Greenwood Park,CP,785.468.3209,,,5,,E DP FT DW SH NR L$,KS,0.4,W,Olsburg
-94.723,37.829,GUNN,Gunn Park,CP,620.223.0550,,,,,E,KS,1.1,SW,Fort Scott
-97.204,38.055,HARE,Harvey County East Park,CP,316.283.5420,,,,,E,KS,7.7,E,Newton
-97.583,38.078,HARW,Harvey County West Park,CP,316.835.3189,,,,,E,KS,13.1,W,Newton
-97.005,38.656,HERR,Herrington City Lakes,CP,,,primitive,,,E,KS,,,Herrington
-95.786,38.275,HICE,Hickory Creek East - John Redmond Reservoir,COE,,,,,,NR,KS,6.1,NW,Burlington
-95.796,38.271,HICW,Hickory Creek West - John Redmond Reservoir,COE,,,,,,NR,KS,6,NW,Burlington
-97.108,38.363,HILL,Hillsboro Cove - Marion Lake,COE,620.382.2101,mid mar-mid nov,,,,E DP 50ft DW SH RS PA,KS,5,W,Marion
-94.888,38.665,HILD,Hillsdale State Park,SP,913.783.4507,all year,,200,,40ft RS,KS,6.4,N,Paola
-98.783,38.514,HOIS,Hoisington Park,CP,620.653.4050,,,12,,WE DP,KS,,,Hoisington
-95.638,38.093,HOLI,Holiday Park - Le Roy,CP,,,,4,,E N$,KS,,,Leroy
-95.943,37.754,HOLL,Holliday Hill - Cross Timbers State Park,SP,620.637.2213,all year,,30,,RS,KS,3.1,S,Toronto
-97.991,38.667,KANA,Horsethief - Kanopolis State Park,SP,785.546.2565,all year,,320,1581,E RS,KS,11.5,NW,Marquette
-95.515,39.671,HORT,Horton Mission Lake,CP,785.486.2681,,,,,E DP SH,KS,1,NE,Horton
-97.137,39.379,HUNT,Huntress City Park,CP,,all year,,,,E ND NS,KS,0.7,W,Clay Center
-95.288,37.143,IDLE,Idle Hour Lake,CP,620.784.5612,,voted 3rd best in Kansas,20,,WES DP FT DW SH RS,KS,3.3,S,Altamont
-99.958,38.052,JETM,Jetmore City Lake,CP,620.357.8344,,,15,2340,E DP,KS,4.2,SW,Jetmore
-98.282,39.698,JEWE,Jewell State Fishing Lake,SP,785.545.3345,all year,primitive sites around lake,,1679,NH ND PT NS,KS,7.1,W,Jewell
-94.959,38.498,JOHN,John Brown Memorial Park,CP,913.755.4460,,,35,,E DP NS,KS,0.4,W,Osawatomie
-95.104,37.173,KAMP,Kamp Siesta,CP,620.795.4433,,,,,E DP DW SH,KS,0.5,NE,Oswego
-96.493,38.687,KANS,Kansas View - Council Cove Lake,COE,620.767.5195,,unknown facil,,,NH ND NS NR,KS,1.8,N,Council Grove
-100.002,39.786,KEIT,Keith Sebelius Lake RA,BOR,785.877.2953,,,,2324,NH ND NS NR,KS,6.7,SW,Norton
-95.736,38.189,KELL,Kelley City Park,CP,620.364.5334,,unknown facilities,,,DP,KS,0.5,SE,Burlington
-96.496,38.696,KITC,Kit Carson Cove - Council Grove Lake,COE,620.767.5195,,,,,WE ND NS NR,KS,2.4,N,Council Grove
-97.631,37.614,LAKA,Lake Afton Park,CP,316.794.2774,,,,,E DP DW SH,KS,4.4,SW,Goddard
-99.344,37.246,LAKC,Lake Coldwater,CP,,,,,2013,E DP DW SH,KS,1.9,SW,Coldwater
-95.24,38.292,LAKG,Lake Garnett City Park,CP,785.448.6823,,,,,E DP DW,KS,0.8,N,Garnett
-94.846,38.596,LAKM,Lake Miola City Park,CP,913.259.3665,,,35,,WES DP FT DW SH,KS,2.4,NE,Paola
-95.35,37.407,LAKP,Lake Parsons,CP,620.421.7093,,,,,NH DP SH,KS,6.7,NW,Parsons
-95.624,39.004,LASH,Lake Shawnee County Campground,CP,785.291.2634,,,127,,E DP DW SH,KS,5,SE,Topeka
-97.975,38.604,KANO,Langley Point - Kanopolis State Park,SP,785.546.2565,all year,,320,,E,KS,8.4,NW,Marquette
-94.667,38.369,LINN,Linn County Park,CP,913.757.6633,,,113,,WES DP FT DW SH,KS,5.3,E,LaCygne
-99.579,39.628,LOGA,Logan Lake City Park,CP,,,,,2041,E,KS,2.4,S,Logan
-95.374,38.838,LONE,Lone Star Lake Park,CP,785.832.5293,,,,,E DW SH,KS,11.9,SW,Lawrence
-95.442,39.19,LONG,Longview - Perry Lake,COE,785.597.5144,early may-late sep,,45,,E DP DW SH RS L$,KS,7.1,W,Oskaloosa
-95.288,37.143,LOUG,Louie P. Gartner RA,CP,620.784.5582,,,9,,WES DP FT DW SH,KS,3.3,S,Altamont
-94.673,38.511,LOUI,Louisburg Middle Creek State Fishing Lake,SP,913.783.4507,all year,primitive sites near lake,,,NH ND NW NS,KS,7.5,S,Louisburg
-98.051,39.905,LOVE,Lovewell State Park,SP,785.753.4971,all year,,425,1598,E SH RS,KS,2.3,S,Webber
-98.503,38.969,LUCA,Lucas - Wilson Reservoir,COE,785.658.2551,all year,,100,1590,WE DP 60ft DW SH RS,KS,6.3,S,Lucas
-98.692,39.119,LURA,Luray North City Park,CP,785.698.2264,,,,1587,E L$,KS,0.6,N,Luray
-98.21,38.34,LYON,Lyons City Campground,CP,,,,25,1688,E DP FT DW SH N$,KS,0.6,SW,Lyons
-98.155,39.67,MAAG,MAAG Memorial Park,CP,,,RV parking,,1555,E DP DW SH L$,KS,0.1,SW,Jewell
-96.149,38.101,MADI,Madison City Lake,CP,,,,,,E L$,KS,2.5,S,Madison
-98.215,39.787,MANK,Mankato City Park,CP,,,,4,,E ND FT DW NS N$,KS,,,Mankato
-95.91,37.772,MANN,Manns Cove - Cross Timbers State Park,SP,620.637.2213,all year,,20,,NH NS,KS,2.8,SE,Toronto
-96.993,38.317,MARI,Marion County Park,CP,620.382.3240,,,,,WE DP DW SH,KS,2.5,SE,Marion
-97.075,38.381,MARC,Marion Cove - Marion Lake,COE,620.382.2101,,,,,NH ND NS NR,KS,3.9,NW,Marion
-95.247,37.338,MARV,Marvel Park,CP,620.421.7030,,,12,,WE DP DW SH,KS,0.8,E,Parsons
-96.647,39.839,MARY,Marysville City Park,CP,785.562.5331,,,,,E DP,KS,0.2,S,Marysville
-97.249,37.617,MCCO,McConnell AFB Military,MIL,316.759.6999,,military only - do not use our lat/lon - contact them for directions and info,,,RS,KS,5.1,N,Derby
-97.472,38.476,MCPH,McPherson State Fishing Lake,SP,620.628.4592,all year,primitive sites near lake,,,NH RS,KS,6.6,N,Canton
-100.328,37.284,MEAD,Meade City Park,CP,,,,,2428,NH DP N$,KS,0.7,E,Meade
-100.438,37.164,MEAD,Meade State Park,SP,620.873.2572,all year,,190,2482,E RS,KS,10,SW,Meade
-98.575,37.278,MEDI,Medicine Lodge City Park,CP,,,,5,,E ND NS,KS,0.4,SE,Medicine Lodge
-95.552,38.66,MICH,Michigan Valley - Pomona Reservoir,COE,785.453.2201,early may-late sep,,95,,WES DP DW SH RS,KS,2,SW,Michigan Valle
-96.9,39.101,MILF,Milford State Park,SP,785.238.3014,all year,,250,,E DW SH RS,KS,5,S,Milford
-97.711,39.119,MINN,Minneapolis City Park,CP,785.392.2176,all year,,6,,E DP FT DW SH,KS,0.3,SW,Minneapolis
-98.59,38.936,MINO,Minooka - Wilson Reservoir,COE,785.658.2551,all year,,220,1570,WE DP DW SH RS,KS,6.2,N,Dorrance
-96.298,37.364,MOLI,Moline City Park,CP,,,,,,DP L$,KS,0.4,NE,Moline
-95.456,37.273,MOUN,Mound Valley - Big Hill Lake,COE,620.336.2741,early apr-late oct,,90,,WES DP DW SH RS L$,KS,5.3,E,Cherryvale
-97.173,37.27,NAPA,Napawalla Park,CP,,,,,,E,KS,0.3,SW,Oxford
-96.517,38.681,NEOS,Neosho - Council Cove Lake,COE,316.767.5195,,,,,E ND NS NR L$,KS,1.9,NW,Council Grove
-97.039,37.041,NEWM,Newman Park,CP,,,,8,,E DP DW,KS,1.4,S,Arkansas City
-95.675,37.417,NORM,Norman No.1 Museum RV Park,CP,620.325.2055,,,4,,WES RS,KS,0.3,E,Neodesha
-97.673,38.565,OLDM,Old Mill - Lindburg,CP,785.227.3595,,,26,,E L$,KS,0.6,S,Lindsborg
-95.443,39.225,OLDT,Old Town - Perry Lake,COE,785.597.5144,early may-late sep,,125,,E DP DW SH RS L$,KS,7,W,Oskaloosa
-96.408,39.397,OREG,Oregon Trail RV Park,CP,785.457.3361,,,16,,E DP DW SH L$,KS,0.4,NE,Westmoreland
-94.994,38.528,OSAW,Osawatomie City Lake,CP,913.755.4769,,,6,,E ND NS,KS,3.2,NW,Osawatomie
-97.558,39.105,OTTO,Ottawa State Fishing Lake,SP,785.546.2279,all year,primitive sites around lake,,,NH RS,KS,8.1,E,Minneapolis
-95.42,39.11,OUTL,Outlet - Perry Lake,COE,785.597.5144,,,,,NH VT NR,KS,2.8,NW,Perry
-95.783,37.28,OUTC,Outlet Channel - Elk City Lake,COE,620.331.6295,,,15,,NH DP DW NS NR L$,KS,5.6,NW,Independence
-95.707,38.515,OUTM,Outlet Park - Melvern,COE,785.549.3318,early apr-late oct,,,,WES DP DW SH RS,KS,3.8,W,Melvern
-95.561,38.643,OUTO,Outlet Park - Pomona Reservoir,COE,785.453.2201,early apr-late dec,,35,,WE DP DW SH RS,KS,3.2,SW,Michigan Valle
-95.485,39.144,PERR,Perry State Park,SP,785.246.3449,all year,,475,,E DW SH RS,KS,6.3,S,Ozawkie
-99.335,39.755,PHIL,Phillipsburg City Park,CP,785.543.5234,,,,1870,E DP DW SH L$,KS,0.6,W,Phillipsburg
-94.715,37.425,PITT,Pittsburg City,CP,620.231.4100,,basic RV parking place,12,,E DP L$,KS,1.1,NW,Pittsburg
-95.581,38.654,POMO,Pomona State Park,SP,785.828.4933,all year,,370,,E RS,KS,2.3,E,Vassar
-95.781,39.947,PONY,Pony Creek Lake,CP,785.284.2158,,unknown facilities,,,L$,KS,,,Sabetha
-99.951,39.807,PRAI,Prairie Dog State Park,SP,785.877.2953,all year,,190,2352,E DP DW SH RS,KS,3.7,SW,Norton
-100.452,37.596,PRAI,Prairie Wind RV Park,CP,620.846.2267,,,5,2779,WES DP NR,KS,0.5,W,Montezuma
-98.684,37.63,PRAT,Pratt County Veterans Memorial Park,CP,620.672.4120,,,17,1805,WE DP DW RS L$,KS,3.1,E,Pratt
-98.044,39.64,RAND,Randall City Park,CP,785.739.2380,,,,,E ND NS N$,KS,0.2,S,Randall
-95.763,38.256,REDN,Redmond Cove North - John Redmond Reservoir,COE,316.364.8613,,,,,NR,KS,4.4,N,Burlington
-95.759,38.254,REDS,Redmond Cove South - John Redmond Reservoir,COE,316.364.8613,,,,,NR,KS,4.2,N,Burlington
-96.503,38.709,RICN,Richey Cove North - Council Grove Lake,COE,620.767.5195,mid april - late sept,,50,,WES RS PA,KS,3.4,N,Council Grove
-96.502,38.702,RICS,Richey Cove South - Council Grove Lake,COE,620.767.5195,mid apr-late oct,,50,,WES DP DW SH RS PA,KS,2.8,N,Council Grove
-95.589,37.036,RIVC,Rivercrest - Walter Johnson City Park,CP,,,,61,,WES DP DW SH NR,KS,1.5,E,Coffeyville
-94.911,39.332,RIVE,Riverfront City Park,CP,913.290.0034,,flooding in 2011 - call to see if open,,,E DP DW SH L$,KS,1.5,NE,Leavenworth
-97.962,38.607,RIVK,Riverside - Kanopolis Reservoir,COE,785.546.2294,,,40,,WE DP FT DW NR L$,KS,24.8,SW,Salina
-95.754,38.25,RIVE,Riverside East - John Redmond Reservoir,COE,620.364.8613,early may-late sep,,,,E 60ft RS PA,KS,3.9,N,Burlington
-95.756,38.239,RIVW,Riverside West - John Redmond Reservoir,COE,620.364.8613,early may-late sep,,,,E DP DW SH RS PA,KS,3.2,N,Burlington
-95.454,39.122,ROCK,Rock Creek - Perry Lake,COE,785.597.5144,early may-late sep,,140,,WE DP DW SH RS L$,KS,4.6,NW,Perry
-94.752,37.815,ROCL,Rock Creek Lake - Fort Scott,CP,800.245.3678,,unknown facilities,,,,KS,2.9,SW,Fort Scott
-96.105,37.662,ROCR,Rock Ridge Cove North - Fall River Lake,COE,620.637.2213,,,45,,E DP DW SH NR,KS,12.8,SW,Toronto
-95.376,38.891,ROCH,Rockhaven - Clinton Lake,COE,,,,,,NH ND NS NR,KS,9.4,SW,Lawrence
-97.622,39.829,ROCK,Rocky Pond City Park,CP,785.527.2288,,,,1510,WE DW SH,KS,0.6,NE,Belleville
-95.798,37.521,ROLL,Rollin RED Vandever Memorial Park,CP,620.332.7199,,,8,,E DP DW,KS,1.8,SE,Fredonia
-96.939,39.06,ROLL,Rolling Hills - Milford Lake,COE,785.238.5714,,,60,,WE DP 60ft SH RS,KS,6.2,W,Junction City
-95.902,39.903,SABE,Sabetha Lake,CP,,,unknown facilities,,,E L$,KS,5.4,W,Sabetha
-95.453,37.646,SANT,Santa Fe City RV Park,CP,,,,60,,WE DP DW SH L$,KS,2.3,S,Chanute
-97.053,37.703,SANL,Santa Fe Lake - Augusta,CP,316.775.9926,,,,,E DP L$,KS,4.3,W,Augusta
-96.525,38.685,SANF,Santa Fe Trail - Council Grove Lake,COE,620.767.5195,mid apr-late oct,,40,,WES DP DW SH RS PA L$,KS,2.4,NW,Council Grove
-100.495,39.839,SAPP,Sappa Park,CP,785.475.2217,all year,,5,2526,E NW,KS,2.3,NE,Oberlin
-96.937,39.143,SCHO,School Creek - Milford Lake,COE,785.238.9714,,,45,,NH ND NS NR L$,KS,6.5,SE,Wakefield
-100.918,38.668,SCOT,Scott State Park,SP,620.872.2061,all year,,150,2819,,KS,12.8,N,Scott City
-96.184,37.128,SEDA,Sedan City Park,CP,620.725.3193,,worlds longest yellow brick road,15,,E DP DW SH,KS,0.2,NE,Sedan
-95.812,39.217,SHAW,Shawnee State Fishing Lake,SP,913.845.2665,all year,primitive sites near lake,,,NH ND NS,KS,8.2,N,Silver Lake
-100.236,39.36,SHER,Sheridan State Fishing Lake,SP,,all year,primitive sites near lake,,2538,NH ND VT NS,KS,11,E,Hoxie
-95.432,39.145,SLOU,Slough Creek - Perry Lake,COE,785.597.5144,mid apr-mid oct,,270,,WE DP DW SH RS L$,KS,5.2,NW,Perry
-98.794,39.785,SMIT,Smith Center Roadside Area,CP,,,,,1785,NH ND NS N$,KS,0.6,NW,Smith Center
-95.248,38.268,SOUT,South Lake Veterans Memorial Park - Garnett,CP,785.448.6823,,,5,,WE DP DW PA,KS,0.9,S,Garnett
-95.746,37.867,SOUT,South Owl Lake,CP,,,unknown facilities,,,NH ND NS,KS,1.2,SW,Yates Center
-96.073,39.19,STMA,St Marys Riverside Park,CP,785.437.2311,,limited RV parking,,,E ND NS L$,KS,0.3,S,St. Marys
-101.8,39.767,STFR,St. Francis City Campground,CP,785.332.2961,,,,3368,E DP SH,KS,0.5,S,St. Francis
-98.202,38.205,STER,Sterling Lake Park,CP,620.278.3411,,,14,1639,WES DP FT DW SH NR,KS,0.4,SE,Sterling
-96.653,39.308,STOC,Stockdale - Tuttle Creek Reservoir,COE,785.539.8511,early jun-late sep,,,,NH DP DW SH RS PA,KS,9.7,NW,Manhattan
-99.28,39.435,STOP,Stockton City Park,CP,785.425.6703,,,5,1759,WE DP FT DW SH RS,KS,0.8,W,Stockton
-95.866,38.484,SUND,Sun Dance - Melvern Lake,COE,,,,,,NH ND NS NR,KS,4.7,N,Lebo
-96.534,38.369,SWOP,Swope Park,CP,620.273.6666,all year,,6,,E DP FT DW SH,KS,0.5,SE,Cottonwood Fal
-98.488,38.969,SYLV,Sylvan - Wilson Reservoir,COE,785.658.2551,all year,,30,,WE DP DW SH RS,KS,6.6,SE,Lucas
-101.759,37.961,SYRA,Syracuse Sand Dunes,CP,,,,,3225,WE NR,KS,1.4,S,Syracuse
-95.595,37.036,THEW,The Woods - Walter Johnson City Park,CP,,,,56,,WE DP DW SH NR L$,KS,1.2,E,Coffeyville
-97.613,38.866,THOM,Thomas City Park,CP,785.309.5765,,,,,NH DP NS N$,KS,1.8,N,Salina
-96.972,39.214,TIMC,Timber Creek - Milford Lake,COE,785.238.5714,,,45,,NH ND NS NR L$,KS,14.8,NW,Junction City
-95.446,37.296,TIMB,Timber Hill - Big Hill Lake,,,,,,,NH DP NS L$,KS,6.1,E,Cherryvale
-95.942,37.775,TORO,Toronto Point - Cross Timbers State Park,SP,620.637.2213,all year,,200,,E DW SH,KS,1.7,S,Toronto
-95.789,38.505,TURK,Turkey Point  - Melvern Lake,COE,785.549.3318,early may-late sep,,,,WE DP DW SH RS L$,KS,9.1,S,Osage City
-96.633,39.279,TUTC,Tuttle Creek Cove - Tuttle Creek Lake,COE,785.539.8511,mid apr-late oct,,55,,WE DP SH RS PA L$,KS,7.3,NW,Manhattan
-96.589,39.256,TUTT,Tuttle Creek State Park,SP,785.539.7941,all year,,700,,E DP RS,KS,5.1,N,Manhattan
-94.756,36.802,TWIN,Twin Bridges State Rec Area,SP,918.542.6969,all year,,,,,KS,,,
-97.988,38.633,VENA,Venango - Kanapolis Reservoir,COE,785.546.2294,early may-late dec,,,1501,WE DP 65ft FT DW SH RS PA,KS,9.9,NW,Marquette
-97.028,37.053,WALN,Walnut River City Park,CP,,,RV camp - unknown facilities,,,E,KS,,,Arkansas City
-96.822,37.842,WALN,Walnut River RV Park,CP,316.321.7180,,,189,,E DP DW SH,KS,2.8,NE,El Dorado
-95.151,39.535,WARN,Warnock Lake Park,CP,913.367.5561,,,,,E NS L$,KS,2.5,SW,Atchison
-97.054,39.809,WASH,Washington City Park,CP,785.325.2284,,,20,,WE DP FT DW SH L$,KS,0.7,S,Washington
-96.744,39.693,WATE,Waterville City,CP,785.363.2367,,,6,,WE DP FT DW L$,KS,0.2,NE,Waterville
-99.449,39.41,WEBS,Webster State Park,SP,785.425.6775,all year,,10,1929,WE ND DW NS RS,KS,10,W,Stockton
-97.52,37.216,WELE,Wellington Lake East Rec Area,CP,620.434.5454,,,,,E DP DW SH L$,KS,8.8,SW,Wellington
-97.528,37.217,WELW,Wellington Lake West Rec Area,CP,620.434.5454,,,,,E DP DW SH L$,KS,9.2,W,Wellington
-95.799,38.219,WESW,West Wingwall - John Redmond Reservoir,COE,,early apr-late oct,,6,,NH ND FT DW NS NR L$,KS,3.5,NW,Burlington
-96.077,37.67,WHIT,White Hall Bay - Fall River Lake,COE,316.658.4445,,,30,,WES DP DW SH RS PA,KS,44.1,E,El Dorado
-95.675,37.697,WILL,Wilson State Fishing Lake,CP,,,,20,,NH,KS,1.5,SE,Buffalo
-98.495,38.909,WILS,Wilson State Park,SP,785.658.2465,all year,,300,1581,E RS,KS,8.8,SW,Sylvan Grove
-96.896,37.346,WINF,Winfield City Lake,CP,620.221.5635,,,,,WES DW L$,KS,9.2,NE,Winfield
-97.01,37.238,WINF,Winfield Fairgrounds RV,CP,620.221.5525,,,,,E DP,KS,0.8,W,Winfield
-95.568,38.676,WOLF,Wolf Creek - Pomona Reservoir,COE,785.453.2201,early apr-late oct,,90,,WE DP DW SH RS,KS,2.3,W,Michigan Valle
-98.588,38.354,WOLF,Wolf Pond Park,CP,,,,,1788,WE L$,KS,0.4,W,Ellinwood
-95.436,38.926,WOOD,Woodridge - Clinton Lake,COE,,early nov-mid mar,open grassy area,,,NH ND VT DW NS NR N$,KS,11.2,W,Lawrence
-98.014,38.644,YANK,Yankee Run - Kanopolis Lake,COE,785.546.2294,,unknown facilities,,1501,NH ND NS NR,KS,25.6,SW,Salina
-95.799,37.835,YATE,Yates Center Reservoir,CP,620.625.2118,all year,,12,,E DP DW NS,KS,4.8,SW,Yates Center
-83.166,42.812,ADDI,Addison Oaks County Park,CP,248.858.4602,,,,,,MI,3.9,S,Leonard
-88.925,47.04,AGAT,Agate Beach,CP,906.482.8319,,primitive,25,,NH ND VT NS,MI,7.8,W,Toivola
-83.803,44.574,ALC1,Alcona Park 1,CP,989.735.3881,,,500,,E DP DW SH,MI,3.9,W,Glennie
-82.515,42.658,ALGO,Algonac State Park,SP,810.765.5605,all year,,400,,E DP DW SH RS,MI,4.4,S,Marine City
-84.465,45.524,ALOH,Aloha State Park,SP,231.625.2522,early may-late oct,,285,,E DP DW SH RS,MI,8.5,S,Cheboygan
-84.257,44.407,AMBR,Ambrose Lake - State Forest,SF,989.275.4622,all year,open all year but snow may block,19,,NH NR L$,MI,9.1,N,West Branch
-87.493,46.226,ANDE,Anderson Lake West - Gwinn State Forest,SF,,all year,open all year but snow may block,19,,NH ND NS NR,MI,4.6,SW,Gwinn
-85.038,46.704,ANDR,Andrus Lake - State Forest,SF,906.293.3293,all year,open all year but snow may block,25,,NH NR,MI,5.3,N,Paradise
-85.04,42.008,ANGE,Angel Cove,CP,517.278.8541,,,110,,WE DP,MI,5.1,NW,Coldwater
-83.836,42.507,APPL,Appleton Lake - Brighton Rec Area,SP,810.229.6566,,,,,NH VT RS,MI,3.2,SW,Brighton
-85.522,44.673,ARBU,Arbutus No. 4 - State Forest,SF,231.922.5280,all year,open all year but snow may block,36,,NH NR,MI,7.9,SE,Traverse City
-83.548,43.281,ARTH,Arthur Latham Park,CP,,,rustic,,,NH,MI,0.9,W,Millington
-83.688,44.05,AUGR,Au Gres City Park,CP,989.876.8310,,,110,,WES DP DW SH,MI,0.4,E,Au Gres
-84.307,46.488,AUNE,Aune - Osborn RV Park,CP,,,,100,,E DP DW SH PA L$,MI,3,SE,Sault Ste. Marie
-84.307,46.488,AUNE,Aune Osborn RV Park,CP,906.632.3268,,,,,E DP SH,MI,3,SE,Sault Ste. Marie
-86.838,46.394,AUTR,Autrain Lake,NF,906.387.2512/906.789.4062,mid may-late sep,,80,,NH RS PA,MI,2.5,S,Au Train
-84.187,44.932,AVER,Avery Lake - State Forest,SF,,all year,open all year but snow may block,16,,NH ND NS NR,MI,5.5,SW,Atlanta
-88.501,46.761,BARA,Baraga State Park,SP,906.353.6558,mid apr-mid nov,,,,E DP DW SH RS,MI,1.3,SW,Baraga
-85.36,45.11,BARN,Barnes County Park,CP,231.599.2712,,,76,,E DP DW SH,MI,0.5,W,Eastport
-85.284,42.633,BARR,Barry Expo Center,CP,269.945.2224,,,260,,E DP DW SH,MI,1,S,Hastings
-87.586,46.263,BAS1,Bass Lake 1- State Forest,SF,,all year,open all year but snow may block,22,,NH ND NS NR,MI,7.1,W,Gwinn
